[
  {
    "source": "FRA",
    "target": "HUN",
    "sourceName": "France",
    "targetName": "Hungary",
    "weight": 656,
    "startLat": 46.2276,
    "startLng": 2.2137,
    "endLat": 47.1625,
    "endLng": 19.5033
  },
  {
    "source": "FRA",
    "target": "USA",
    "sourceName": "France",
    "targetName": "United States",
    "weight": 564,
    "startLat": 46.2276,
    "startLng": 2.2137,
    "endLat": 37.0902,
    "endLng": -95.7129
  },
  {
    "source": "HUN",
    "target": "USA",
    "sourceName": "Hungary",
    "targetName": "United States",
    "weight": 401,
    "startLat": 47.1625,
    "startLng": 19.5033,
    "endLat": 37.0902,
    "endLng": -95.7129
  },
  {
    "source": "GBR",
    "target": "USA",
    "sourceName": "United Kingdom",
    "targetName": "United States",
    "weight": 201,
    "startLat": 55.3781,
    "startLng": -3.436,
    "endLat": 37.0902,
    "endLng": -95.7129
  },
  {
    "source": "JPN",
    "target": "USA",
    "sourceName": "Japan",
    "targetName": "United States",
    "weight": 174,
    "startLat": 36.2048,
    "startLng": 138.2529,
    "endLat": 37.0902,
    "endLng": -95.7129
  },
  {
    "source": "DEU",
    "target": "USA",
    "sourceName": "Germany",
    "targetName": "United States",
    "weight": 165,
    "startLat": 51.1657,
    "startLng": 10.4515,
    "endLat": 37.0902,
    "endLng": -95.7129
  },
  {
    "source": "ARG",
    "target": "USA",
    "sourceName": "Argentina",
    "targetName": "United States",
    "weight": 161,
    "startLat": -38.4161,
    "startLng": -63.6167,
    "endLat": 37.0902,
    "endLng": -95.7129
  },
  {
    "source": "CHE",
    "target": "FRA",
    "sourceName": "Switzerland",
    "targetName": "France",
    "weight": 127,
    "startLat": 46.8182,
    "startLng": 8.2275,
    "endLat": 46.2276,
    "endLng": 2.2137
  },
  {
    "source": "FRA",
    "target": "JPN",
    "sourceName": "France",
    "targetName": "Japan",
    "weight": 120,
    "startLat": 46.2276,
    "startLng": 2.2137,
    "endLat": 36.2048,
    "endLng": 138.2529
  },
  {
    "source": "NLD",
    "target": "USA",
    "sourceName": "Netherlands",
    "targetName": "United States",
    "weight": 113,
    "startLat": 52.1326,
    "startLng": 5.2913,
    "endLat": 37.0902,
    "endLng": -95.7129
  },
  {
    "source": "ITA",
    "target": "USA",
    "sourceName": "Italy",
    "targetName": "United States",
    "weight": 99,
    "startLat": 41.8719,
    "startLng": 12.5674,
    "endLat": 37.0902,
    "endLng": -95.7129
  },
  {
    "source": "HUN",
    "target": "JPN",
    "sourceName": "Hungary",
    "targetName": "Japan",
    "weight": 95,
    "startLat": 47.1625,
    "startLng": 19.5033,
    "endLat": 36.2048,
    "endLng": 138.2529
  },
  {
    "source": "RUS",
    "target": "UKR",
    "sourceName": "Russia",
    "targetName": "Ukraine",
    "weight": 88,
    "startLat": 61.524,
    "startLng": 105.3188,
    "endLat": 48.3794,
    "endLng": 31.1656
  },
  {
    "source": "MEX",
    "target": "USA",
    "sourceName": "Mexico",
    "targetName": "United States",
    "weight": 87,
    "startLat": 23.6345,
    "startLng": -102.5528,
    "endLat": 37.0902,
    "endLng": -95.7129
  },
  {
    "source": "DEU",
    "target": "FRA",
    "sourceName": "Germany",
    "targetName": "France",
    "weight": 84,
    "startLat": 51.1657,
    "startLng": 10.4515,
    "endLat": 46.2276,
    "endLng": 2.2137
  },
  {
    "source": "FRA",
    "target": "ITA",
    "sourceName": "France",
    "targetName": "Italy",
    "weight": 84,
    "startLat": 46.2276,
    "startLng": 2.2137,
    "endLat": 41.8719,
    "endLng": 12.5674
  },
  {
    "source": "CHE",
    "target": "USA",
    "sourceName": "Switzerland",
    "targetName": "United States",
    "weight": 81,
    "startLat": 46.8182,
    "startLng": 8.2275,
    "endLat": 37.0902,
    "endLng": -95.7129
  },
  {
    "source": "AUT",
    "target": "CHE",
    "sourceName": "Austria",
    "targetName": "Switzerland",
    "weight": 71,
    "startLat": 47.5162,
    "startLng": 14.5501,
    "endLat": 46.8182,
    "endLng": 8.2275
  },
  {
    "source": "NLD",
    "target": "SVK",
    "sourceName": "Netherlands",
    "targetName": "Slovakia",
    "weight": 70,
    "startLat": 52.1326,
    "startLng": 5.2913,
    "endLat": 48.669,
    "endLng": 19.699
  },
  {
    "source": "SVK",
    "target": "USA",
    "sourceName": "Slovakia",
    "targetName": "United States",
    "weight": 70,
    "startLat": 48.669,
    "startLng": 19.699,
    "endLat": 37.0902,
    "endLng": -95.7129
  },
  {
    "source": "FRA",
    "target": "NLD",
    "sourceName": "France",
    "targetName": "Netherlands",
    "weight": 52,
    "startLat": 46.2276,
    "startLng": 2.2137,
    "endLat": 52.1326,
    "endLng": 5.2913
  },
  {
    "source": "FRA",
    "target": "GBR",
    "sourceName": "France",
    "targetName": "United Kingdom",
    "weight": 51,
    "startLat": 46.2276,
    "startLng": 2.2137,
    "endLat": 55.3781,
    "endLng": -3.436
  },
  {
    "source": "MYS",
    "target": "SGP",
    "sourceName": "Malaysia",
    "targetName": "Singapore",
    "weight": 50,
    "startLat": 4.2105,
    "startLng": 101.9758,
    "endLat": 1.3521,
    "endLng": 103.8198
  },
  {
    "source": "CAN",
    "target": "FRA",
    "sourceName": "Canada",
    "targetName": "France",
    "weight": 49,
    "startLat": 56.1304,
    "startLng": -106.3468,
    "endLat": 46.2276,
    "endLng": 2.2137
  },
  {
    "source": "GBR",
    "target": "NLD",
    "sourceName": "United Kingdom",
    "targetName": "Netherlands",
    "weight": 48,
    "startLat": 55.3781,
    "startLng": -3.436,
    "endLat": 52.1326,
    "endLng": 5.2913
  },
  {
    "source": "DEU",
    "target": "GBR",
    "sourceName": "Germany",
    "targetName": "United Kingdom",
    "weight": 47,
    "startLat": 51.1657,
    "startLng": 10.4515,
    "endLat": 55.3781,
    "endLng": -3.436
  },
  {
    "source": "CHE",
    "target": "DEU",
    "sourceName": "Switzerland",
    "targetName": "Germany",
    "weight": 44,
    "startLat": 46.8182,
    "startLng": 8.2275,
    "endLat": 51.1657,
    "endLng": 10.4515
  },
  {
    "source": "DNK",
    "target": "USA",
    "sourceName": "Denmark",
    "targetName": "United States",
    "weight": 43,
    "startLat": 56.2639,
    "startLng": 9.5018,
    "endLat": 37.0902,
    "endLng": -95.7129
  },
  {
    "source": "CAN",
    "target": "HUN",
    "sourceName": "Canada",
    "targetName": "Hungary",
    "weight": 42,
    "startLat": 56.1304,
    "startLng": -106.3468,
    "endLat": 47.1625,
    "endLng": 19.5033
  },
  {
    "source": "GEO",
    "target": "RUS",
    "sourceName": "Georgia",
    "targetName": "Russia",
    "weight": 41,
    "startLat": 42.3154,
    "startLng": 43.3569,
    "endLat": 61.524,
    "endLng": 105.3188
  },
  {
    "source": "DEU",
    "target": "ITA",
    "sourceName": "Germany",
    "targetName": "Italy",
    "weight": 36,
    "startLat": 51.1657,
    "startLng": 10.4515,
    "endLat": 41.8719,
    "endLng": 12.5674
  },
  {
    "source": "HUN",
    "target": "ITA",
    "sourceName": "Hungary",
    "targetName": "Italy",
    "weight": 35,
    "startLat": 47.1625,
    "startLng": 19.5033,
    "endLat": 41.8719,
    "endLng": 12.5674
  },
  {
    "source": "GBR",
    "target": "MEX",
    "sourceName": "United Kingdom",
    "targetName": "Mexico",
    "weight": 34,
    "startLat": 55.3781,
    "startLng": -3.436,
    "endLat": 23.6345,
    "endLng": -102.5528
  },
  {
    "source": "ARG",
    "target": "MEX",
    "sourceName": "Argentina",
    "targetName": "Mexico",
    "weight": 33,
    "startLat": -38.4161,
    "startLng": -63.6167,
    "endLat": 23.6345,
    "endLng": -102.5528
  },
  {
    "source": "ARG",
    "target": "BEL",
    "sourceName": "Argentina",
    "targetName": "Belgium",
    "weight": 32,
    "startLat": -38.4161,
    "startLng": -63.6167,
    "endLat": 50.5039,
    "endLng": 4.4699
  },
  {
    "source": "BEL",
    "target": "MEX",
    "sourceName": "Belgium",
    "targetName": "Mexico",
    "weight": 32,
    "startLat": 50.5039,
    "startLng": 4.4699,
    "endLat": 23.6345,
    "endLng": -102.5528
  },
  {
    "source": "CAN",
    "target": "USA",
    "sourceName": "Canada",
    "targetName": "United States",
    "weight": 29,
    "startLat": 56.1304,
    "startLng": -106.3468,
    "endLat": 37.0902,
    "endLng": -95.7129
  },
  {
    "source": "CHE",
    "target": "GBR",
    "sourceName": "Switzerland",
    "targetName": "United Kingdom",
    "weight": 29,
    "startLat": 46.8182,
    "startLng": 8.2275,
    "endLat": 55.3781,
    "endLng": -3.436
  },
  {
    "source": "AUT",
    "target": "DEU",
    "sourceName": "Austria",
    "targetName": "Germany",
    "weight": 29,
    "startLat": 47.5162,
    "startLng": 14.5501,
    "endLat": 51.1657,
    "endLng": 10.4515
  },
  {
    "source": "DEU",
    "target": "HUN",
    "sourceName": "Germany",
    "targetName": "Hungary",
    "weight": 29,
    "startLat": 51.1657,
    "startLng": 10.4515,
    "endLat": 47.1625,
    "endLng": 19.5033
  },
  {
    "source": "HUN",
    "target": "NLD",
    "sourceName": "Hungary",
    "targetName": "Netherlands",
    "weight": 29,
    "startLat": 47.1625,
    "startLng": 19.5033,
    "endLat": 52.1326,
    "endLng": 5.2913
  },
  {
    "source": "ESP",
    "target": "USA",
    "sourceName": "Spain",
    "targetName": "United States",
    "weight": 28,
    "startLat": 40.4637,
    "startLng": -3.7492,
    "endLat": 37.0902,
    "endLng": -95.7129
  },
  {
    "source": "ESP",
    "target": "FRA",
    "sourceName": "Spain",
    "targetName": "France",
    "weight": 28,
    "startLat": 40.4637,
    "startLng": -3.7492,
    "endLat": 46.2276,
    "endLng": 2.2137
  },
  {
    "source": "DEU",
    "target": "DNK",
    "sourceName": "Germany",
    "targetName": "Denmark",
    "weight": 28,
    "startLat": 51.1657,
    "startLng": 10.4515,
    "endLat": 56.2639,
    "endLng": 9.5018
  },
  {
    "source": "RUS",
    "target": "USA",
    "sourceName": "Russia",
    "targetName": "United States",
    "weight": 28,
    "startLat": 61.524,
    "startLng": 105.3188,
    "endLat": 37.0902,
    "endLng": -95.7129
  },
  {
    "source": "AUT",
    "target": "USA",
    "sourceName": "Austria",
    "targetName": "United States",
    "weight": 27,
    "startLat": 47.5162,
    "startLng": 14.5501,
    "endLat": 37.0902,
    "endLng": -95.7129
  },
  {
    "source": "DNK",
    "target": "PHL",
    "sourceName": "Denmark",
    "targetName": "Philippines",
    "weight": 25,
    "startLat": 56.2639,
    "startLng": 9.5018,
    "endLat": 12.8797,
    "endLng": 121.774
  },
  {
    "source": "CAN",
    "target": "GBR",
    "sourceName": "Canada",
    "targetName": "United Kingdom",
    "weight": 24,
    "startLat": 56.1304,
    "startLng": -106.3468,
    "endLat": 55.3781,
    "endLng": -3.436
  },
  {
    "source": "BEL",
    "target": "FRA",
    "sourceName": "Belgium",
    "targetName": "France",
    "weight": 23,
    "startLat": 50.5039,
    "startLng": 4.4699,
    "endLat": 46.2276,
    "endLng": 2.2137
  },
  {
    "source": "ISL",
    "target": "USA",
    "sourceName": "Iceland",
    "targetName": "United States",
    "weight": 22,
    "startLat": 64.9631,
    "startLng": -19.0208,
    "endLat": 37.0902,
    "endLng": -95.7129
  },
  {
    "source": "CHE",
    "target": "ITA",
    "sourceName": "Switzerland",
    "targetName": "Italy",
    "weight": 19,
    "startLat": 46.8182,
    "startLng": 8.2275,
    "endLat": 41.8719,
    "endLng": 12.5674
  },
  {
    "source": "BEL",
    "target": "USA",
    "sourceName": "Belgium",
    "targetName": "United States",
    "weight": 18,
    "startLat": 50.5039,
    "startLng": 4.4699,
    "endLat": 37.0902,
    "endLng": -95.7129
  },
  {
    "source": "DEU",
    "target": "NLD",
    "sourceName": "Germany",
    "targetName": "Netherlands",
    "weight": 18,
    "startLat": 51.1657,
    "startLng": 10.4515,
    "endLat": 52.1326,
    "endLng": 5.2913
  },
  {
    "source": "GBR",
    "target": "ITA",
    "sourceName": "United Kingdom",
    "targetName": "Italy",
    "weight": 18,
    "startLat": 55.3781,
    "startLng": -3.436,
    "endLat": 41.8719,
    "endLng": 12.5674
  },
  {
    "source": "USA",
    "target": "ZAF",
    "sourceName": "United States",
    "targetName": "South Africa",
    "weight": 18,
    "startLat": 37.0902,
    "startLng": -95.7129,
    "endLat": -30.5595,
    "endLng": 22.9375
  },
  {
    "source": "GEO",
    "target": "UKR",
    "sourceName": "Georgia",
    "targetName": "Ukraine",
    "weight": 18,
    "startLat": 42.3154,
    "startLng": 43.3569,
    "endLat": 48.3794,
    "endLng": 31.1656
  },
  {
    "source": "BRA",
    "target": "USA",
    "sourceName": "Brazil",
    "targetName": "United States",
    "weight": 18,
    "startLat": -14.235,
    "startLng": -51.9253,
    "endLat": 37.0902,
    "endLng": -95.7129
  },
  {
    "source": "DEU",
    "target": "JPN",
    "sourceName": "Germany",
    "targetName": "Japan",
    "weight": 17,
    "startLat": 51.1657,
    "startLng": 10.4515,
    "endLat": 36.2048,
    "endLng": 138.2529
  },
  {
    "source": "JPN",
    "target": "NLD",
    "sourceName": "Japan",
    "targetName": "Netherlands",
    "weight": 17,
    "startLat": 36.2048,
    "startLng": 138.2529,
    "endLat": 52.1326,
    "endLng": 5.2913
  },
  {
    "source": "ITA",
    "target": "NLD",
    "sourceName": "Italy",
    "targetName": "Netherlands",
    "weight": 17,
    "startLat": 41.8719,
    "startLng": 12.5674,
    "endLat": 52.1326,
    "endLng": 5.2913
  },
  {
    "source": "CHN",
    "target": "JPN",
    "sourceName": "China",
    "targetName": "Japan",
    "weight": 17,
    "startLat": 35.8617,
    "startLng": 104.1954,
    "endLat": 36.2048,
    "endLng": 138.2529
  },
  {
    "source": "CZE",
    "target": "DEU",
    "sourceName": "Czech Republic",
    "targetName": "Germany",
    "weight": 16,
    "startLat": 49.8175,
    "startLng": 15.473,
    "endLat": 51.1657,
    "endLng": 10.4515
  },
  {
    "source": "ITA",
    "target": "JPN",
    "sourceName": "Italy",
    "targetName": "Japan",
    "weight": 15,
    "startLat": 41.8719,
    "startLng": 12.5674,
    "endLat": 36.2048,
    "endLng": 138.2529
  },
  {
    "source": "LVA",
    "target": "RUS",
    "sourceName": "Latvia",
    "targetName": "Russia",
    "weight": 15,
    "startLat": 56.8796,
    "startLng": 24.6032,
    "endLat": 61.524,
    "endLng": 105.3188
  },
  {
    "source": "BRA",
    "target": "FRA",
    "sourceName": "Brazil",
    "targetName": "France",
    "weight": 15,
    "startLat": -14.235,
    "startLng": -51.9253,
    "endLat": 46.2276,
    "endLng": 2.2137
  },
  {
    "source": "BEL",
    "target": "NLD",
    "sourceName": "Belgium",
    "targetName": "Netherlands",
    "weight": 14,
    "startLat": 50.5039,
    "startLng": 4.4699,
    "endLat": 52.1326,
    "endLng": 5.2913
  },
  {
    "source": "CZE",
    "target": "USA",
    "sourceName": "Czech Republic",
    "targetName": "United States",
    "weight": 14,
    "startLat": 49.8175,
    "startLng": 15.473,
    "endLat": 37.0902,
    "endLng": -95.7129
  },
  {
    "source": "GBR",
    "target": "POL",
    "sourceName": "United Kingdom",
    "targetName": "Poland",
    "weight": 14,
    "startLat": 55.3781,
    "startLng": -3.436,
    "endLat": 51.9194,
    "endLng": 19.1451
  },
  {
    "source": "AUT",
    "target": "FRA",
    "sourceName": "Austria",
    "targetName": "France",
    "weight": 14,
    "startLat": 47.5162,
    "startLng": 14.5501,
    "endLat": 46.2276,
    "endLng": 2.2137
  },
  {
    "source": "BEL",
    "target": "DEU",
    "sourceName": "Belgium",
    "targetName": "Germany",
    "weight": 13,
    "startLat": 50.5039,
    "startLng": 4.4699,
    "endLat": 51.1657,
    "endLng": 10.4515
  },
  {
    "source": "CAN",
    "target": "DEU",
    "sourceName": "Canada",
    "targetName": "Germany",
    "weight": 13,
    "startLat": 56.1304,
    "startLng": -106.3468,
    "endLat": 51.1657,
    "endLng": 10.4515
  },
  {
    "source": "CHE",
    "target": "NLD",
    "sourceName": "Switzerland",
    "targetName": "Netherlands",
    "weight": 13,
    "startLat": 46.8182,
    "startLng": 8.2275,
    "endLat": 52.1326,
    "endLng": 5.2913
  },
  {
    "source": "BEL",
    "target": "ITA",
    "sourceName": "Belgium",
    "targetName": "Italy",
    "weight": 13,
    "startLat": 50.5039,
    "startLng": 4.4699,
    "endLat": 41.8719,
    "endLng": 12.5674
  },
  {
    "source": "DEU",
    "target": "SWE",
    "sourceName": "Germany",
    "targetName": "Sweden",
    "weight": 12,
    "startLat": 51.1657,
    "startLng": 10.4515,
    "endLat": 60.1282,
    "endLng": 18.6435
  },
  {
    "source": "SWE",
    "target": "USA",
    "sourceName": "Sweden",
    "targetName": "United States",
    "weight": 12,
    "startLat": 60.1282,
    "startLng": 18.6435,
    "endLat": 37.0902,
    "endLng": -95.7129
  },
  {
    "source": "DEU",
    "target": "RUS",
    "sourceName": "Germany",
    "targetName": "Russia",
    "weight": 12,
    "startLat": 51.1657,
    "startLng": 10.4515,
    "endLat": 61.524,
    "endLng": 105.3188
  },
  {
    "source": "ESP",
    "target": "ITA",
    "sourceName": "Spain",
    "targetName": "Italy",
    "weight": 11,
    "startLat": 40.4637,
    "startLng": -3.7492,
    "endLat": 41.8719,
    "endLng": 12.5674
  },
  {
    "source": "BEL",
    "target": "CHL",
    "sourceName": "Belgium",
    "targetName": "Chile",
    "weight": 11,
    "startLat": 50.5039,
    "startLng": 4.4699,
    "endLat": -35.6751,
    "endLng": -71.543
  },
  {
    "source": "CAN",
    "target": "CHE",
    "sourceName": "Canada",
    "targetName": "Switzerland",
    "weight": 11,
    "startLat": 56.1304,
    "startLng": -106.3468,
    "endLat": 46.8182,
    "endLng": 8.2275
  },
  {
    "source": "BEL",
    "target": "GBR",
    "sourceName": "Belgium",
    "targetName": "United Kingdom",
    "weight": 11,
    "startLat": 50.5039,
    "startLng": 4.4699,
    "endLat": 55.3781,
    "endLng": -3.436
  },
  {
    "source": "GBR",
    "target": "PRT",
    "sourceName": "United Kingdom",
    "targetName": "Portugal",
    "weight": 11,
    "startLat": 55.3781,
    "startLng": -3.436,
    "endLat": 39.3999,
    "endLng": -8.2245
  },
  {
    "source": "CZE",
    "target": "GBR",
    "sourceName": "Czech Republic",
    "targetName": "United Kingdom",
    "weight": 11,
    "startLat": 49.8175,
    "startLng": 15.473,
    "endLat": 55.3781,
    "endLng": -3.436
  },
  {
    "source": "CUB",
    "target": "USA",
    "sourceName": "Cuba",
    "targetName": "United States",
    "weight": 10,
    "startLat": 21.5218,
    "startLng": -77.7812,
    "endLat": 37.0902,
    "endLng": -95.7129
  },
  {
    "source": "GBR",
    "target": "JPN",
    "sourceName": "United Kingdom",
    "targetName": "Japan",
    "weight": 10,
    "startLat": 55.3781,
    "startLng": -3.436,
    "endLat": 36.2048,
    "endLng": 138.2529
  },
  {
    "source": "DEU",
    "target": "POL",
    "sourceName": "Germany",
    "targetName": "Poland",
    "weight": 10,
    "startLat": 51.1657,
    "startLng": 10.4515,
    "endLat": 51.9194,
    "endLng": 19.1451
  },
  {
    "source": "HRV",
    "target": "USA",
    "sourceName": "Croatia",
    "targetName": "United States",
    "weight": 10,
    "startLat": 45.1,
    "startLng": 15.2,
    "endLat": 37.0902,
    "endLng": -95.7129
  },
  {
    "source": "DZA",
    "target": "LBN",
    "sourceName": "Algeria",
    "targetName": "Lebanon",
    "weight": 10,
    "startLat": 28.0339,
    "startLng": 1.6596,
    "endLat": 33.8547,
    "endLng": 35.8623
  },
  {
    "source": "DNK",
    "target": "NLD",
    "sourceName": "Denmark",
    "targetName": "Netherlands",
    "weight": 9,
    "startLat": 56.2639,
    "startLng": 9.5018,
    "endLat": 52.1326,
    "endLng": 5.2913
  },
  {
    "source": "CHE",
    "target": "JPN",
    "sourceName": "Switzerland",
    "targetName": "Japan",
    "weight": 9,
    "startLat": 46.8182,
    "startLng": 8.2275,
    "endLat": 36.2048,
    "endLng": 138.2529
  },
  {
    "source": "CUB",
    "target": "FRA",
    "sourceName": "Cuba",
    "targetName": "France",
    "weight": 9,
    "startLat": 21.5218,
    "startLng": -77.7812,
    "endLat": 46.2276,
    "endLng": 2.2137
  },
  {
    "source": "DNK",
    "target": "FRA",
    "sourceName": "Denmark",
    "targetName": "France",
    "weight": 9,
    "startLat": 56.2639,
    "startLng": 9.5018,
    "endLat": 46.2276,
    "endLng": 2.2137
  },
  {
    "source": "CZE",
    "target": "FRA",
    "sourceName": "Czech Republic",
    "targetName": "France",
    "weight": 9,
    "startLat": 49.8175,
    "startLng": 15.473,
    "endLat": 46.2276,
    "endLng": 2.2137
  },
  {
    "source": "AUT",
    "target": "GBR",
    "sourceName": "Austria",
    "targetName": "United Kingdom",
    "weight": 9,
    "startLat": 47.5162,
    "startLng": 14.5501,
    "endLat": 55.3781,
    "endLng": -3.436
  },
  {
    "source": "CHN",
    "target": "USA",
    "sourceName": "China",
    "targetName": "United States",
    "weight": 9,
    "startLat": 35.8617,
    "startLng": 104.1954,
    "endLat": 37.0902,
    "endLng": -95.7129
  },
  {
    "source": "CHE",
    "target": "ESP",
    "sourceName": "Switzerland",
    "targetName": "Spain",
    "weight": 8,
    "startLat": 46.8182,
    "startLng": 8.2275,
    "endLat": 40.4637,
    "endLng": -3.7492
  },
  {
    "source": "ESP",
    "target": "GBR",
    "sourceName": "Spain",
    "targetName": "United Kingdom",
    "weight": 8,
    "startLat": 40.4637,
    "startLng": -3.7492,
    "endLat": 55.3781,
    "endLng": -3.436
  },
  {
    "source": "GRC",
    "target": "USA",
    "sourceName": "Greece",
    "targetName": "United States",
    "weight": 8,
    "startLat": 39.0742,
    "startLng": 21.8243,
    "endLat": 37.0902,
    "endLng": -95.7129
  },
  {
    "source": "POL",
    "target": "USA",
    "sourceName": "Poland",
    "targetName": "United States",
    "weight": 8,
    "startLat": 51.9194,
    "startLng": 19.1451,
    "endLat": 37.0902,
    "endLng": -95.7129
  },
  {
    "source": "BEL",
    "target": "CHE",
    "sourceName": "Belgium",
    "targetName": "Switzerland",
    "weight": 8,
    "startLat": 50.5039,
    "startLng": 4.4699,
    "endLat": 46.8182,
    "endLng": 8.2275
  },
  {
    "source": "BEL",
    "target": "ISR",
    "sourceName": "Belgium",
    "targetName": "Israel",
    "weight": 8,
    "startLat": 50.5039,
    "startLng": 4.4699,
    "endLat": 31.0461,
    "endLng": 34.8516
  },
  {
    "source": "DEU",
    "target": "PRT",
    "sourceName": "Germany",
    "targetName": "Portugal",
    "weight": 8,
    "startLat": 51.1657,
    "startLng": 10.4515,
    "endLat": 39.3999,
    "endLng": -8.2245
  },
  {
    "source": "FRA",
    "target": "PRT",
    "sourceName": "France",
    "targetName": "Portugal",
    "weight": 8,
    "startLat": 46.2276,
    "startLng": 2.2137,
    "endLat": 39.3999,
    "endLng": -8.2245
  },
  {
    "source": "AUT",
    "target": "POL",
    "sourceName": "Austria",
    "targetName": "Poland",
    "weight": 7,
    "startLat": 47.5162,
    "startLng": 14.5501,
    "endLat": 51.9194,
    "endLng": 19.1451
  },
  {
    "source": "CHE",
    "target": "GRC",
    "sourceName": "Switzerland",
    "targetName": "Greece",
    "weight": 7,
    "startLat": 46.8182,
    "startLng": 8.2275,
    "endLat": 39.0742,
    "endLng": 21.8243
  },
  {
    "source": "AUS",
    "target": "USA",
    "sourceName": "Australia",
    "targetName": "United States",
    "weight": 7,
    "startLat": -25.2744,
    "startLng": 133.7751,
    "endLat": 37.0902,
    "endLng": -95.7129
  },
  {
    "source": "DNK",
    "target": "GBR",
    "sourceName": "Denmark",
    "targetName": "United Kingdom",
    "weight": 7,
    "startLat": 56.2639,
    "startLng": 9.5018,
    "endLat": 55.3781,
    "endLng": -3.436
  },
  {
    "source": "GBR",
    "target": "ISR",
    "sourceName": "United Kingdom",
    "targetName": "Israel",
    "weight": 7,
    "startLat": 55.3781,
    "startLng": -3.436,
    "endLat": 31.0461,
    "endLng": 34.8516
  },
  {
    "source": "CAN",
    "target": "GRC",
    "sourceName": "Canada",
    "targetName": "Greece",
    "weight": 7,
    "startLat": 56.1304,
    "startLng": -106.3468,
    "endLat": 39.0742,
    "endLng": 21.8243
  },
  {
    "source": "CAN",
    "target": "ZAF",
    "sourceName": "Canada",
    "targetName": "South Africa",
    "weight": 7,
    "startLat": 56.1304,
    "startLng": -106.3468,
    "endLat": -30.5595,
    "endLng": 22.9375
  },
  {
    "source": "CHE",
    "target": "ZAF",
    "sourceName": "Switzerland",
    "targetName": "South Africa",
    "weight": 7,
    "startLat": 46.8182,
    "startLng": 8.2275,
    "endLat": -30.5595,
    "endLng": 22.9375
  },
  {
    "source": "GRC",
    "target": "ZAF",
    "sourceName": "Greece",
    "targetName": "South Africa",
    "weight": 7,
    "startLat": 39.0742,
    "startLng": 21.8243,
    "endLat": -30.5595,
    "endLng": 22.9375
  },
  {
    "source": "IND",
    "target": "USA",
    "sourceName": "India",
    "targetName": "United States",
    "weight": 7,
    "startLat": 20.5937,
    "startLng": 78.9629,
    "endLat": 37.0902,
    "endLng": -95.7129
  },
  {
    "source": "BEL",
    "target": "ESP",
    "sourceName": "Belgium",
    "targetName": "Spain",
    "weight": 6,
    "startLat": 50.5039,
    "startLng": 4.4699,
    "endLat": 40.4637,
    "endLng": -3.7492
  },
  {
    "source": "CAN",
    "target": "ESP",
    "sourceName": "Canada",
    "targetName": "Spain",
    "weight": 6,
    "startLat": 56.1304,
    "startLng": -106.3468,
    "endLat": 40.4637,
    "endLng": -3.7492
  },
  {
    "source": "DEU",
    "target": "ESP",
    "sourceName": "Germany",
    "targetName": "Spain",
    "weight": 6,
    "startLat": 51.1657,
    "startLng": 10.4515,
    "endLat": 40.4637,
    "endLng": -3.7492
  },
  {
    "source": "BEL",
    "target": "JPN",
    "sourceName": "Belgium",
    "targetName": "Japan",
    "weight": 6,
    "startLat": 50.5039,
    "startLng": 4.4699,
    "endLat": 36.2048,
    "endLng": 138.2529
  },
  {
    "source": "ARG",
    "target": "ITA",
    "sourceName": "Argentina",
    "targetName": "Italy",
    "weight": 6,
    "startLat": -38.4161,
    "startLng": -63.6167,
    "endLat": 41.8719,
    "endLng": 12.5674
  },
  {
    "source": "FRA",
    "target": "POL",
    "sourceName": "France",
    "targetName": "Poland",
    "weight": 6,
    "startLat": 46.2276,
    "startLng": 2.2137,
    "endLat": 51.9194,
    "endLng": 19.1451
  },
  {
    "source": "AUS",
    "target": "GBR",
    "sourceName": "Australia",
    "targetName": "United Kingdom",
    "weight": 6,
    "startLat": -25.2744,
    "startLng": 133.7751,
    "endLat": 55.3781,
    "endLng": -3.436
  },
  {
    "source": "USA",
    "target": "VEN",
    "sourceName": "United States",
    "targetName": "Venezuela",
    "weight": 6,
    "startLat": 37.0902,
    "startLng": -95.7129,
    "endLat": 6.4238,
    "endLng": -66.5897
  },
  {
    "source": "CAN",
    "target": "ITA",
    "sourceName": "Canada",
    "targetName": "Italy",
    "weight": 6,
    "startLat": 56.1304,
    "startLng": -106.3468,
    "endLat": 41.8719,
    "endLng": 12.5674
  },
  {
    "source": "CUB",
    "target": "ESP",
    "sourceName": "Cuba",
    "targetName": "Spain",
    "weight": 6,
    "startLat": 21.5218,
    "startLng": -77.7812,
    "endLat": 40.4637,
    "endLng": -3.7492
  },
  {
    "source": "BEL",
    "target": "DNK",
    "sourceName": "Belgium",
    "targetName": "Denmark",
    "weight": 6,
    "startLat": 50.5039,
    "startLng": 4.4699,
    "endLat": 56.2639,
    "endLng": 9.5018
  },
  {
    "source": "CHL",
    "target": "FRA",
    "sourceName": "Chile",
    "targetName": "France",
    "weight": 6,
    "startLat": -35.6751,
    "startLng": -71.543,
    "endLat": 46.2276,
    "endLng": 2.2137
  },
  {
    "source": "DEU",
    "target": "ISR",
    "sourceName": "Germany",
    "targetName": "Israel",
    "weight": 6,
    "startLat": 51.1657,
    "startLng": 10.4515,
    "endLat": 31.0461,
    "endLng": 34.8516
  },
  {
    "source": "DNK",
    "target": "ITA",
    "sourceName": "Denmark",
    "targetName": "Italy",
    "weight": 6,
    "startLat": 56.2639,
    "startLng": 9.5018,
    "endLat": 41.8719,
    "endLng": 12.5674
  },
  {
    "source": "CHN",
    "target": "GBR",
    "sourceName": "China",
    "targetName": "United Kingdom",
    "weight": 6,
    "startLat": 35.8617,
    "startLng": 104.1954,
    "endLat": 55.3781,
    "endLng": -3.436
  },
  {
    "source": "CHE",
    "target": "PRT",
    "sourceName": "Switzerland",
    "targetName": "Portugal",
    "weight": 6,
    "startLat": 46.8182,
    "startLng": 8.2275,
    "endLat": 39.3999,
    "endLng": -8.2245
  },
  {
    "source": "ESP",
    "target": "IRN",
    "sourceName": "Spain",
    "targetName": "Iran",
    "weight": 6,
    "startLat": 40.4637,
    "startLng": -3.7492,
    "endLat": 32.4279,
    "endLng": 53.688
  },
  {
    "source": "CAN",
    "target": "TWN",
    "sourceName": "Canada",
    "targetName": "Taiwan",
    "weight": 6,
    "startLat": 56.1304,
    "startLng": -106.3468,
    "endLat": 23.6978,
    "endLng": 120.9605
  },
  {
    "source": "CHE",
    "target": "TWN",
    "sourceName": "Switzerland",
    "targetName": "Taiwan",
    "weight": 6,
    "startLat": 46.8182,
    "startLng": 8.2275,
    "endLat": 23.6978,
    "endLng": 120.9605
  },
  {
    "source": "GRC",
    "target": "TWN",
    "sourceName": "Greece",
    "targetName": "Taiwan",
    "weight": 6,
    "startLat": 39.0742,
    "startLng": 21.8243,
    "endLat": 23.6978,
    "endLng": 120.9605
  },
  {
    "source": "TWN",
    "target": "USA",
    "sourceName": "Taiwan",
    "targetName": "United States",
    "weight": 6,
    "startLat": 23.6978,
    "startLng": 120.9605,
    "endLat": 37.0902,
    "endLng": -95.7129
  },
  {
    "source": "TWN",
    "target": "ZAF",
    "sourceName": "Taiwan",
    "targetName": "South Africa",
    "weight": 6,
    "startLat": 23.6978,
    "startLng": 120.9605,
    "endLat": -30.5595,
    "endLng": 22.9375
  },
  {
    "source": "BEL",
    "target": "CAN",
    "sourceName": "Belgium",
    "targetName": "Canada",
    "weight": 5,
    "startLat": 50.5039,
    "startLng": 4.4699,
    "endLat": 56.1304,
    "endLng": -106.3468
  },
  {
    "source": "FRA",
    "target": "MEX",
    "sourceName": "France",
    "targetName": "Mexico",
    "weight": 5,
    "startLat": 46.2276,
    "startLng": 2.2137,
    "endLat": 23.6345,
    "endLng": -102.5528
  },
  {
    "source": "AUS",
    "target": "DEU",
    "sourceName": "Australia",
    "targetName": "Germany",
    "weight": 5,
    "startLat": -25.2744,
    "startLng": 133.7751,
    "endLat": 51.1657,
    "endLng": 10.4515
  },
  {
    "source": "THA",
    "target": "USA",
    "sourceName": "Thailand",
    "targetName": "United States",
    "weight": 5,
    "startLat": 15.87,
    "startLng": 100.9925,
    "endLat": 37.0902,
    "endLng": -95.7129
  },
  {
    "source": "IRL",
    "target": "USA",
    "sourceName": "Ireland",
    "targetName": "United States",
    "weight": 5,
    "startLat": 53.4129,
    "startLng": -8.2439,
    "endLat": 37.0902,
    "endLng": -95.7129
  },
  {
    "source": "FRA",
    "target": "RUS",
    "sourceName": "France",
    "targetName": "Russia",
    "weight": 5,
    "startLat": 46.2276,
    "startLng": 2.2137,
    "endLat": 61.524,
    "endLng": 105.3188
  },
  {
    "source": "CUB",
    "target": "GBR",
    "sourceName": "Cuba",
    "targetName": "United Kingdom",
    "weight": 5,
    "startLat": 21.5218,
    "startLng": -77.7812,
    "endLat": 55.3781,
    "endLng": -3.436
  },
  {
    "source": "FRA",
    "target": "SWE",
    "sourceName": "France",
    "targetName": "Sweden",
    "weight": 5,
    "startLat": 46.2276,
    "startLng": 2.2137,
    "endLat": 60.1282,
    "endLng": 18.6435
  },
  {
    "source": "CHL",
    "target": "USA",
    "sourceName": "Chile",
    "targetName": "United States",
    "weight": 5,
    "startLat": -35.6751,
    "startLng": -71.543,
    "endLat": 37.0902,
    "endLng": -95.7129
  },
  {
    "source": "CZE",
    "target": "ITA",
    "sourceName": "Czech Republic",
    "targetName": "Italy",
    "weight": 5,
    "startLat": 49.8175,
    "startLng": 15.473,
    "endLat": 41.8719,
    "endLng": 12.5674
  },
  {
    "source": "DEU",
    "target": "ROU",
    "sourceName": "Germany",
    "targetName": "Romania",
    "weight": 5,
    "startLat": 51.1657,
    "startLng": 10.4515,
    "endLat": 45.9432,
    "endLng": 24.9668
  },
  {
    "source": "DNK",
    "target": "JPN",
    "sourceName": "Denmark",
    "targetName": "Japan",
    "weight": 5,
    "startLat": 56.2639,
    "startLng": 9.5018,
    "endLat": 36.2048,
    "endLng": 138.2529
  },
  {
    "source": "GBR",
    "target": "SWE",
    "sourceName": "United Kingdom",
    "targetName": "Sweden",
    "weight": 5,
    "startLat": 55.3781,
    "startLng": -3.436,
    "endLat": 60.1282,
    "endLng": 18.6435
  },
  {
    "source": "AUT",
    "target": "JPN",
    "sourceName": "Austria",
    "targetName": "Japan",
    "weight": 5,
    "startLat": 47.5162,
    "startLng": 14.5501,
    "endLat": 36.2048,
    "endLng": 138.2529
  },
  {
    "source": "BRA",
    "target": "VEN",
    "sourceName": "Brazil",
    "targetName": "Venezuela",
    "weight": 5,
    "startLat": -14.235,
    "startLng": -51.9253,
    "endLat": 6.4238,
    "endLng": -66.5897
  },
  {
    "source": "BIH",
    "target": "HRV",
    "sourceName": "Bosnia and Herzegovina",
    "targetName": "Croatia",
    "weight": 5,
    "startLat": 43.9159,
    "startLng": 17.6791,
    "endLat": 45.1,
    "endLng": 15.2
  },
  {
    "source": "CAN",
    "target": "NLD",
    "sourceName": "Canada",
    "targetName": "Netherlands",
    "weight": 4,
    "startLat": 56.1304,
    "startLng": -106.3468,
    "endLat": 52.1326,
    "endLng": 5.2913
  },
  {
    "source": "ESP",
    "target": "NLD",
    "sourceName": "Spain",
    "targetName": "Netherlands",
    "weight": 4,
    "startLat": 40.4637,
    "startLng": -3.7492,
    "endLat": 52.1326,
    "endLng": 5.2913
  },
  {
    "source": "ESP",
    "target": "MEX",
    "sourceName": "Spain",
    "targetName": "Mexico",
    "weight": 4,
    "startLat": 40.4637,
    "startLng": -3.7492,
    "endLat": 23.6345,
    "endLng": -102.5528
  },
  {
    "source": "ITA",
    "target": "MEX",
    "sourceName": "Italy",
    "targetName": "Mexico",
    "weight": 4,
    "startLat": 41.8719,
    "startLng": 12.5674,
    "endLat": 23.6345,
    "endLng": -102.5528
  },
  {
    "source": "ESP",
    "target": "POL",
    "sourceName": "Spain",
    "targetName": "Poland",
    "weight": 4,
    "startLat": 40.4637,
    "startLng": -3.7492,
    "endLat": 51.9194,
    "endLng": 19.1451
  },
  {
    "source": "DEU",
    "target": "THA",
    "sourceName": "Germany",
    "targetName": "Thailand",
    "weight": 4,
    "startLat": 51.1657,
    "startLng": 10.4515,
    "endLat": 15.87,
    "endLng": 100.9925
  },
  {
    "source": "FRA",
    "target": "ISL",
    "sourceName": "France",
    "targetName": "Iceland",
    "weight": 4,
    "startLat": 46.2276,
    "startLng": 2.2137,
    "endLat": 64.9631,
    "endLng": -19.0208
  },
  {
    "source": "CAN",
    "target": "SWE",
    "sourceName": "Canada",
    "targetName": "Sweden",
    "weight": 4,
    "startLat": 56.1304,
    "startLng": -106.3468,
    "endLat": 60.1282,
    "endLng": 18.6435
  },
  {
    "source": "BRA",
    "target": "DEU",
    "sourceName": "Brazil",
    "targetName": "Germany",
    "weight": 4,
    "startLat": -14.235,
    "startLng": -51.9253,
    "endLat": 51.1657,
    "endLng": 10.4515
  },
  {
    "source": "CHL",
    "target": "ESP",
    "sourceName": "Chile",
    "targetName": "Spain",
    "weight": 4,
    "startLat": -35.6751,
    "startLng": -71.543,
    "endLat": 40.4637,
    "endLng": -3.7492
  },
  {
    "source": "CHL",
    "target": "ITA",
    "sourceName": "Chile",
    "targetName": "Italy",
    "weight": 4,
    "startLat": -35.6751,
    "startLng": -71.543,
    "endLat": 41.8719,
    "endLng": 12.5674
  },
  {
    "source": "AUT",
    "target": "ITA",
    "sourceName": "Austria",
    "targetName": "Italy",
    "weight": 4,
    "startLat": 47.5162,
    "startLng": 14.5501,
    "endLat": 41.8719,
    "endLng": 12.5674
  },
  {
    "source": "ARG",
    "target": "FRA",
    "sourceName": "Argentina",
    "targetName": "France",
    "weight": 4,
    "startLat": -38.4161,
    "startLng": -63.6167,
    "endLat": 46.2276,
    "endLng": 2.2137
  },
  {
    "source": "ISR",
    "target": "ITA",
    "sourceName": "Israel",
    "targetName": "Italy",
    "weight": 4,
    "startLat": 31.0461,
    "startLng": 34.8516,
    "endLat": 41.8719,
    "endLng": 12.5674
  },
  {
    "source": "CAN",
    "target": "JPN",
    "sourceName": "Canada",
    "targetName": "Japan",
    "weight": 4,
    "startLat": 56.1304,
    "startLng": -106.3468,
    "endLat": 36.2048,
    "endLng": 138.2529
  },
  {
    "source": "BEL",
    "target": "SWE",
    "sourceName": "Belgium",
    "targetName": "Sweden",
    "weight": 4,
    "startLat": 50.5039,
    "startLng": 4.4699,
    "endLat": 60.1282,
    "endLng": 18.6435
  },
  {
    "source": "ITA",
    "target": "SWE",
    "sourceName": "Italy",
    "targetName": "Sweden",
    "weight": 4,
    "startLat": 41.8719,
    "startLng": 12.5674,
    "endLat": 60.1282,
    "endLng": 18.6435
  },
  {
    "source": "JPN",
    "target": "SWE",
    "sourceName": "Japan",
    "targetName": "Sweden",
    "weight": 4,
    "startLat": 36.2048,
    "startLng": 138.2529,
    "endLat": 60.1282,
    "endLng": 18.6435
  },
  {
    "source": "ARG",
    "target": "GBR",
    "sourceName": "Argentina",
    "targetName": "United Kingdom",
    "weight": 4,
    "startLat": -38.4161,
    "startLng": -63.6167,
    "endLat": 55.3781,
    "endLng": -3.436
  },
  {
    "source": "ARG",
    "target": "CHL",
    "sourceName": "Argentina",
    "targetName": "Chile",
    "weight": 4,
    "startLat": -38.4161,
    "startLng": -63.6167,
    "endLat": -35.6751,
    "endLng": -71.543
  },
  {
    "source": "DEU",
    "target": "MEX",
    "sourceName": "Germany",
    "targetName": "Mexico",
    "weight": 4,
    "startLat": 51.1657,
    "startLng": 10.4515,
    "endLat": 23.6345,
    "endLng": -102.5528
  },
  {
    "source": "COL",
    "target": "VEN",
    "sourceName": "Colombia",
    "targetName": "Venezuela",
    "weight": 4,
    "startLat": 4.5709,
    "startLng": -74.2973,
    "endLat": 6.4238,
    "endLng": -66.5897
  },
  {
    "source": "ARG",
    "target": "BRA",
    "sourceName": "Argentina",
    "targetName": "Brazil",
    "weight": 4,
    "startLat": -38.4161,
    "startLng": -63.6167,
    "endLat": -14.235,
    "endLng": -51.9253
  },
  {
    "source": "KOR",
    "target": "USA",
    "sourceName": "South Korea",
    "targetName": "United States",
    "weight": 4,
    "startLat": 35.9078,
    "startLng": 127.7669,
    "endLat": 37.0902,
    "endLng": -95.7129
  },
  {
    "source": "CHE",
    "target": "HRV",
    "sourceName": "Switzerland",
    "targetName": "Croatia",
    "weight": 4,
    "startLat": 46.8182,
    "startLng": 8.2275,
    "endLat": 45.1,
    "endLng": 15.2
  },
  {
    "source": "CHE",
    "target": "MKD",
    "sourceName": "Switzerland",
    "targetName": "North Macedonia",
    "weight": 4,
    "startLat": 46.8182,
    "startLng": 8.2275,
    "endLat": 41.6086,
    "endLng": 21.7453
  },
  {
    "source": "ARG",
    "target": "ESP",
    "sourceName": "Argentina",
    "targetName": "Spain",
    "weight": 3,
    "startLat": -38.4161,
    "startLng": -63.6167,
    "endLat": 40.4637,
    "endLng": -3.7492
  },
  {
    "source": "ESP",
    "target": "JPN",
    "sourceName": "Spain",
    "targetName": "Japan",
    "weight": 3,
    "startLat": 40.4637,
    "startLng": -3.7492,
    "endLat": 36.2048,
    "endLng": 138.2529
  },
  {
    "source": "CHE",
    "target": "MEX",
    "sourceName": "Switzerland",
    "targetName": "Mexico",
    "weight": 3,
    "startLat": 46.8182,
    "startLng": 8.2275,
    "endLat": 23.6345,
    "endLng": -102.5528
  },
  {
    "source": "URY",
    "target": "USA",
    "sourceName": "Uruguay",
    "targetName": "United States",
    "weight": 3,
    "startLat": -32.5228,
    "startLng": -55.7658,
    "endLat": 37.0902,
    "endLng": -95.7129
  },
  {
    "source": "CHE",
    "target": "POL",
    "sourceName": "Switzerland",
    "targetName": "Poland",
    "weight": 3,
    "startLat": 46.8182,
    "startLng": 8.2275,
    "endLat": 51.9194,
    "endLng": 19.1451
  },
  {
    "source": "AUS",
    "target": "CHE",
    "sourceName": "Australia",
    "targetName": "Switzerland",
    "weight": 3,
    "startLat": -25.2744,
    "startLng": 133.7751,
    "endLat": 46.8182,
    "endLng": 8.2275
  },
  {
    "source": "AUS",
    "target": "FRA",
    "sourceName": "Australia",
    "targetName": "France",
    "weight": 3,
    "startLat": -25.2744,
    "startLng": 133.7751,
    "endLat": 46.2276,
    "endLng": 2.2137
  },
  {
    "source": "CHE",
    "target": "THA",
    "sourceName": "Switzerland",
    "targetName": "Thailand",
    "weight": 3,
    "startLat": 46.8182,
    "startLng": 8.2275,
    "endLat": 15.87,
    "endLng": 100.9925
  },
  {
    "source": "FRA",
    "target": "VEN",
    "sourceName": "France",
    "targetName": "Venezuela",
    "weight": 3,
    "startLat": 46.2276,
    "startLng": 2.2137,
    "endLat": 6.4238,
    "endLng": -66.5897
  },
  {
    "source": "GBR",
    "target": "VEN",
    "sourceName": "United Kingdom",
    "targetName": "Venezuela",
    "weight": 3,
    "startLat": 55.3781,
    "startLng": -3.436,
    "endLat": 6.4238,
    "endLng": -66.5897
  },
  {
    "source": "CUB",
    "target": "DEU",
    "sourceName": "Cuba",
    "targetName": "Germany",
    "weight": 3,
    "startLat": 21.5218,
    "startLng": -77.7812,
    "endLat": 51.1657,
    "endLng": 10.4515
  },
  {
    "source": "GBR",
    "target": "ISL",
    "sourceName": "United Kingdom",
    "targetName": "Iceland",
    "weight": 3,
    "startLat": 55.3781,
    "startLng": -3.436,
    "endLat": 64.9631,
    "endLng": -19.0208
  },
  {
    "source": "BEL",
    "target": "CUB",
    "sourceName": "Belgium",
    "targetName": "Cuba",
    "weight": 3,
    "startLat": 50.5039,
    "startLng": 4.4699,
    "endLat": 21.5218,
    "endLng": -77.7812
  },
  {
    "source": "BEL",
    "target": "CZE",
    "sourceName": "Belgium",
    "targetName": "Czech Republic",
    "weight": 3,
    "startLat": 50.5039,
    "startLng": 4.4699,
    "endLat": 49.8175,
    "endLng": 15.473
  },
  {
    "source": "BRA",
    "target": "ESP",
    "sourceName": "Brazil",
    "targetName": "Spain",
    "weight": 3,
    "startLat": -14.235,
    "startLng": -51.9253,
    "endLat": 40.4637,
    "endLng": -3.7492
  },
  {
    "source": "CHE",
    "target": "CZE",
    "sourceName": "Switzerland",
    "targetName": "Czech Republic",
    "weight": 3,
    "startLat": 46.8182,
    "startLng": 8.2275,
    "endLat": 49.8175,
    "endLng": 15.473
  },
  {
    "source": "CHL",
    "target": "CUB",
    "sourceName": "Chile",
    "targetName": "Cuba",
    "weight": 3,
    "startLat": -35.6751,
    "startLng": -71.543,
    "endLat": 21.5218,
    "endLng": -77.7812
  },
  {
    "source": "CHL",
    "target": "DEU",
    "sourceName": "Chile",
    "targetName": "Germany",
    "weight": 3,
    "startLat": -35.6751,
    "startLng": -71.543,
    "endLat": 51.1657,
    "endLng": 10.4515
  },
  {
    "source": "CUB",
    "target": "ITA",
    "sourceName": "Cuba",
    "targetName": "Italy",
    "weight": 3,
    "startLat": 21.5218,
    "startLng": -77.7812,
    "endLat": 41.8719,
    "endLng": 12.5674
  },
  {
    "source": "FRA",
    "target": "ROU",
    "sourceName": "France",
    "targetName": "Romania",
    "weight": 3,
    "startLat": 46.2276,
    "startLng": 2.2137,
    "endLat": 45.9432,
    "endLng": 24.9668
  },
  {
    "source": "ROU",
    "target": "USA",
    "sourceName": "Romania",
    "targetName": "United States",
    "weight": 3,
    "startLat": 45.9432,
    "startLng": 24.9668,
    "endLat": 37.0902,
    "endLng": -95.7129
  },
  {
    "source": "CHL",
    "target": "GBR",
    "sourceName": "Chile",
    "targetName": "United Kingdom",
    "weight": 3,
    "startLat": -35.6751,
    "startLng": -71.543,
    "endLat": 55.3781,
    "endLng": -3.436
  },
  {
    "source": "AUT",
    "target": "NLD",
    "sourceName": "Austria",
    "targetName": "Netherlands",
    "weight": 3,
    "startLat": 47.5162,
    "startLng": 14.5501,
    "endLat": 52.1326,
    "endLng": 5.2913
  },
  {
    "source": "BEL",
    "target": "HUN",
    "sourceName": "Belgium",
    "targetName": "Hungary",
    "weight": 3,
    "startLat": 50.5039,
    "startLng": 4.4699,
    "endLat": 47.1625,
    "endLng": 19.5033
  },
  {
    "source": "ARG",
    "target": "DEU",
    "sourceName": "Argentina",
    "targetName": "Germany",
    "weight": 3,
    "startLat": -38.4161,
    "startLng": -63.6167,
    "endLat": 51.1657,
    "endLng": 10.4515
  },
  {
    "source": "ISR",
    "target": "USA",
    "sourceName": "Israel",
    "targetName": "United States",
    "weight": 3,
    "startLat": 31.0461,
    "startLng": 34.8516,
    "endLat": 37.0902,
    "endLng": -95.7129
  },
  {
    "source": "ITA",
    "target": "RUS",
    "sourceName": "Italy",
    "targetName": "Russia",
    "weight": 3,
    "startLat": 41.8719,
    "startLng": 12.5674,
    "endLat": 61.524,
    "endLng": 105.3188
  },
  {
    "source": "CHE",
    "target": "DNK",
    "sourceName": "Switzerland",
    "targetName": "Denmark",
    "weight": 3,
    "startLat": 46.8182,
    "startLng": 8.2275,
    "endLat": 56.2639,
    "endLng": 9.5018
  },
  {
    "source": "ARG",
    "target": "JPN",
    "sourceName": "Argentina",
    "targetName": "Japan",
    "weight": 3,
    "startLat": -38.4161,
    "startLng": -63.6167,
    "endLat": 36.2048,
    "endLng": 138.2529
  },
  {
    "source": "CHN",
    "target": "IND",
    "sourceName": "China",
    "targetName": "India",
    "weight": 3,
    "startLat": 35.8617,
    "startLng": 104.1954,
    "endLat": 20.5937,
    "endLng": 78.9629
  },
  {
    "source": "GBR",
    "target": "IND",
    "sourceName": "United Kingdom",
    "targetName": "India",
    "weight": 3,
    "startLat": 55.3781,
    "startLng": -3.436,
    "endLat": 20.5937,
    "endLng": 78.9629
  },
  {
    "source": "GBR",
    "target": "ROU",
    "sourceName": "United Kingdom",
    "targetName": "Romania",
    "weight": 3,
    "startLat": 55.3781,
    "startLng": -3.436,
    "endLat": 45.9432,
    "endLng": 24.9668
  },
  {
    "source": "CHL",
    "target": "NLD",
    "sourceName": "Chile",
    "targetName": "Netherlands",
    "weight": 3,
    "startLat": -35.6751,
    "startLng": -71.543,
    "endLat": 52.1326,
    "endLng": 5.2913
  },
  {
    "source": "JPN",
    "target": "MEX",
    "sourceName": "Japan",
    "targetName": "Mexico",
    "weight": 3,
    "startLat": 36.2048,
    "startLng": 138.2529,
    "endLat": 23.6345,
    "endLng": -102.5528
  },
  {
    "source": "MEX",
    "target": "NLD",
    "sourceName": "Mexico",
    "targetName": "Netherlands",
    "weight": 3,
    "startLat": 23.6345,
    "startLng": -102.5528,
    "endLat": 52.1326,
    "endLng": 5.2913
  },
  {
    "source": "ESP",
    "target": "GEO",
    "sourceName": "Spain",
    "targetName": "Georgia",
    "weight": 3,
    "startLat": 40.4637,
    "startLng": -3.7492,
    "endLat": 42.3154,
    "endLng": 43.3569
  },
  {
    "source": "AUT",
    "target": "ESP",
    "sourceName": "Austria",
    "targetName": "Spain",
    "weight": 3,
    "startLat": 47.5162,
    "startLng": 14.5501,
    "endLat": 40.4637,
    "endLng": -3.7492
  },
  {
    "source": "CZE",
    "target": "NLD",
    "sourceName": "Czech Republic",
    "targetName": "Netherlands",
    "weight": 3,
    "startLat": 49.8175,
    "startLng": 15.473,
    "endLat": 52.1326,
    "endLng": 5.2913
  },
  {
    "source": "FRA",
    "target": "IRL",
    "sourceName": "France",
    "targetName": "Ireland",
    "weight": 3,
    "startLat": 46.2276,
    "startLng": 2.2137,
    "endLat": 53.4129,
    "endLng": -8.2439
  },
  {
    "source": "AUT",
    "target": "SWE",
    "sourceName": "Austria",
    "targetName": "Sweden",
    "weight": 3,
    "startLat": 47.5162,
    "startLng": 14.5501,
    "endLat": 60.1282,
    "endLng": 18.6435
  },
  {
    "source": "DNK",
    "target": "ESP",
    "sourceName": "Denmark",
    "targetName": "Spain",
    "weight": 3,
    "startLat": 56.2639,
    "startLng": 9.5018,
    "endLat": 40.4637,
    "endLng": -3.7492
  },
  {
    "source": "MEX",
    "target": "VEN",
    "sourceName": "Mexico",
    "targetName": "Venezuela",
    "weight": 3,
    "startLat": 23.6345,
    "startLng": -102.5528,
    "endLat": 6.4238,
    "endLng": -66.5897
  },
  {
    "source": "ARG",
    "target": "COL",
    "sourceName": "Argentina",
    "targetName": "Colombia",
    "weight": 3,
    "startLat": -38.4161,
    "startLng": -63.6167,
    "endLat": 4.5709,
    "endLng": -74.2973
  },
  {
    "source": "ARG",
    "target": "VEN",
    "sourceName": "Argentina",
    "targetName": "Venezuela",
    "weight": 3,
    "startLat": -38.4161,
    "startLng": -63.6167,
    "endLat": 6.4238,
    "endLng": -66.5897
  },
  {
    "source": "BRA",
    "target": "COL",
    "sourceName": "Brazil",
    "targetName": "Colombia",
    "weight": 3,
    "startLat": -14.235,
    "startLng": -51.9253,
    "endLat": 4.5709,
    "endLng": -74.2973
  },
  {
    "source": "BRA",
    "target": "GBR",
    "sourceName": "Brazil",
    "targetName": "United Kingdom",
    "weight": 3,
    "startLat": -14.235,
    "startLng": -51.9253,
    "endLat": 55.3781,
    "endLng": -3.436
  },
  {
    "source": "BRA",
    "target": "URY",
    "sourceName": "Brazil",
    "targetName": "Uruguay",
    "weight": 3,
    "startLat": -14.235,
    "startLng": -51.9253,
    "endLat": -32.5228,
    "endLng": -55.7658
  },
  {
    "source": "DEU",
    "target": "ZAF",
    "sourceName": "Germany",
    "targetName": "South Africa",
    "weight": 3,
    "startLat": 51.1657,
    "startLng": 10.4515,
    "endLat": -30.5595,
    "endLng": 22.9375
  },
  {
    "source": "GBR",
    "target": "ZAF",
    "sourceName": "United Kingdom",
    "targetName": "South Africa",
    "weight": 3,
    "startLat": 55.3781,
    "startLng": -3.436,
    "endLat": -30.5595,
    "endLng": 22.9375
  },
  {
    "source": "AUT",
    "target": "ISR",
    "sourceName": "Austria",
    "targetName": "Israel",
    "weight": 3,
    "startLat": 47.5162,
    "startLng": 14.5501,
    "endLat": 31.0461,
    "endLng": 34.8516
  },
  {
    "source": "AUT",
    "target": "CZE",
    "sourceName": "Austria",
    "targetName": "Czech Republic",
    "weight": 3,
    "startLat": 47.5162,
    "startLng": 14.5501,
    "endLat": 49.8175,
    "endLng": 15.473
  },
  {
    "source": "PRI",
    "target": "USA",
    "sourceName": "Puerto Rico",
    "targetName": "United States",
    "weight": 3,
    "startLat": 18.2208,
    "startLng": -66.5901,
    "endLat": 37.0902,
    "endLng": -95.7129
  },
  {
    "source": "AUT",
    "target": "CHN",
    "sourceName": "Austria",
    "targetName": "China",
    "weight": 3,
    "startLat": 47.5162,
    "startLng": 14.5501,
    "endLat": 35.8617,
    "endLng": 104.1954
  },
  {
    "source": "CZE",
    "target": "JPN",
    "sourceName": "Czech Republic",
    "targetName": "Japan",
    "weight": 3,
    "startLat": 49.8175,
    "startLng": 15.473,
    "endLat": 36.2048,
    "endLng": 138.2529
  },
  {
    "source": "LTU",
    "target": "USA",
    "sourceName": "Lithuania",
    "targetName": "United States",
    "weight": 3,
    "startLat": 55.1694,
    "startLng": 23.8813,
    "endLat": 37.0902,
    "endLng": -95.7129
  },
  {
    "source": "CHN",
    "target": "NLD",
    "sourceName": "China",
    "targetName": "Netherlands",
    "weight": 3,
    "startLat": 35.8617,
    "startLng": 104.1954,
    "endLat": 52.1326,
    "endLng": 5.2913
  },
  {
    "source": "CHE",
    "target": "SRB",
    "sourceName": "Switzerland",
    "targetName": "Serbia",
    "weight": 3,
    "startLat": 46.8182,
    "startLng": 8.2275,
    "endLat": 44.0165,
    "endLng": 21.0059
  },
  {
    "source": "BIH",
    "target": "CHE",
    "sourceName": "Bosnia and Herzegovina",
    "targetName": "Switzerland",
    "weight": 3,
    "startLat": 43.9159,
    "startLng": 17.6791,
    "endLat": 46.8182,
    "endLng": 8.2275
  },
  {
    "source": "AUS",
    "target": "SRB",
    "sourceName": "Australia",
    "targetName": "Serbia",
    "weight": 3,
    "startLat": -25.2744,
    "startLng": 133.7751,
    "endLat": 44.0165,
    "endLng": 21.0059
  },
  {
    "source": "ESP",
    "target": "URY",
    "sourceName": "Spain",
    "targetName": "Uruguay",
    "weight": 2,
    "startLat": 40.4637,
    "startLng": -3.7492,
    "endLat": -32.5228,
    "endLng": -55.7658
  },
  {
    "source": "FRA",
    "target": "GRC",
    "sourceName": "France",
    "targetName": "Greece",
    "weight": 2,
    "startLat": 46.2276,
    "startLng": 2.2137,
    "endLat": 39.0742,
    "endLng": 21.8243
  },
  {
    "source": "GBR",
    "target": "GRC",
    "sourceName": "United Kingdom",
    "targetName": "Greece",
    "weight": 2,
    "startLat": 55.3781,
    "startLng": -3.436,
    "endLat": 39.0742,
    "endLng": 21.8243
  },
  {
    "source": "GBR",
    "target": "URY",
    "sourceName": "United Kingdom",
    "targetName": "Uruguay",
    "weight": 2,
    "startLat": 55.3781,
    "startLng": -3.436,
    "endLat": -32.5228,
    "endLng": -55.7658
  },
  {
    "source": "GRC",
    "target": "ITA",
    "sourceName": "Greece",
    "targetName": "Italy",
    "weight": 2,
    "startLat": 39.0742,
    "startLng": 21.8243,
    "endLat": 41.8719,
    "endLng": 12.5674
  },
  {
    "source": "GRC",
    "target": "MEX",
    "sourceName": "Greece",
    "targetName": "Mexico",
    "weight": 2,
    "startLat": 39.0742,
    "startLng": 21.8243,
    "endLat": 23.6345,
    "endLng": -102.5528
  },
  {
    "source": "MEX",
    "target": "URY",
    "sourceName": "Mexico",
    "targetName": "Uruguay",
    "weight": 2,
    "startLat": 23.6345,
    "startLng": -102.5528,
    "endLat": -32.5228,
    "endLng": -55.7658
  },
  {
    "source": "ITA",
    "target": "POL",
    "sourceName": "Italy",
    "targetName": "Poland",
    "weight": 2,
    "startLat": 41.8719,
    "startLng": 12.5674,
    "endLat": 51.9194,
    "endLng": 19.1451
  },
  {
    "source": "DEU",
    "target": "GRC",
    "sourceName": "Germany",
    "targetName": "Greece",
    "weight": 2,
    "startLat": 51.1657,
    "startLng": 10.4515,
    "endLat": 39.0742,
    "endLng": 21.8243
  },
  {
    "source": "NZL",
    "target": "USA",
    "sourceName": "New Zealand",
    "targetName": "United States",
    "weight": 2,
    "startLat": -40.9006,
    "startLng": 174.886,
    "endLat": 37.0902,
    "endLng": -95.7129
  },
  {
    "source": "CHE",
    "target": "CUB",
    "sourceName": "Switzerland",
    "targetName": "Cuba",
    "weight": 2,
    "startLat": 46.8182,
    "startLng": 8.2275,
    "endLat": 21.5218,
    "endLng": -77.7812
  },
  {
    "source": "BEL",
    "target": "ISL",
    "sourceName": "Belgium",
    "targetName": "Iceland",
    "weight": 2,
    "startLat": 50.5039,
    "startLng": 4.4699,
    "endLat": 64.9631,
    "endLng": -19.0208
  },
  {
    "source": "ISL",
    "target": "NLD",
    "sourceName": "Iceland",
    "targetName": "Netherlands",
    "weight": 2,
    "startLat": 64.9631,
    "startLng": -19.0208,
    "endLat": 52.1326,
    "endLng": 5.2913
  },
  {
    "source": "ESP",
    "target": "SWE",
    "sourceName": "Spain",
    "targetName": "Sweden",
    "weight": 2,
    "startLat": 40.4637,
    "startLng": -3.7492,
    "endLat": 60.1282,
    "endLng": 18.6435
  },
  {
    "source": "AUT",
    "target": "HUN",
    "sourceName": "Austria",
    "targetName": "Hungary",
    "weight": 2,
    "startLat": 47.5162,
    "startLng": 14.5501,
    "endLat": 47.1625,
    "endLng": 19.5033
  },
  {
    "source": "BEL",
    "target": "ROU",
    "sourceName": "Belgium",
    "targetName": "Romania",
    "weight": 2,
    "startLat": 50.5039,
    "startLng": 4.4699,
    "endLat": 45.9432,
    "endLng": 24.9668
  },
  {
    "source": "BRA",
    "target": "CHL",
    "sourceName": "Brazil",
    "targetName": "Chile",
    "weight": 2,
    "startLat": -14.235,
    "startLng": -51.9253,
    "endLat": -35.6751,
    "endLng": -71.543
  },
  {
    "source": "BRA",
    "target": "CUB",
    "sourceName": "Brazil",
    "targetName": "Cuba",
    "weight": 2,
    "startLat": -14.235,
    "startLng": -51.9253,
    "endLat": 21.5218,
    "endLng": -77.7812
  },
  {
    "source": "CHE",
    "target": "ROU",
    "sourceName": "Switzerland",
    "targetName": "Romania",
    "weight": 2,
    "startLat": 46.8182,
    "startLng": 8.2275,
    "endLat": 45.9432,
    "endLng": 24.9668
  },
  {
    "source": "CHL",
    "target": "CZE",
    "sourceName": "Chile",
    "targetName": "Czech Republic",
    "weight": 2,
    "startLat": -35.6751,
    "startLng": -71.543,
    "endLat": 49.8175,
    "endLng": 15.473
  },
  {
    "source": "CUB",
    "target": "CZE",
    "sourceName": "Cuba",
    "targetName": "Czech Republic",
    "weight": 2,
    "startLat": 21.5218,
    "startLng": -77.7812,
    "endLat": 49.8175,
    "endLng": 15.473
  },
  {
    "source": "CUB",
    "target": "ROU",
    "sourceName": "Cuba",
    "targetName": "Romania",
    "weight": 2,
    "startLat": 21.5218,
    "startLng": -77.7812,
    "endLat": 45.9432,
    "endLng": 24.9668
  },
  {
    "source": "CZE",
    "target": "ESP",
    "sourceName": "Czech Republic",
    "targetName": "Spain",
    "weight": 2,
    "startLat": 49.8175,
    "startLng": 15.473,
    "endLat": 40.4637,
    "endLng": -3.7492
  },
  {
    "source": "CZE",
    "target": "ROU",
    "sourceName": "Czech Republic",
    "targetName": "Romania",
    "weight": 2,
    "startLat": 49.8175,
    "startLng": 15.473,
    "endLat": 45.9432,
    "endLng": 24.9668
  },
  {
    "source": "ITA",
    "target": "ROU",
    "sourceName": "Italy",
    "targetName": "Romania",
    "weight": 2,
    "startLat": 41.8719,
    "startLng": 12.5674,
    "endLat": 45.9432,
    "endLng": 24.9668
  },
  {
    "source": "CAN",
    "target": "CHL",
    "sourceName": "Canada",
    "targetName": "Chile",
    "weight": 2,
    "startLat": 56.1304,
    "startLng": -106.3468,
    "endLat": -35.6751,
    "endLng": -71.543
  },
  {
    "source": "CHL",
    "target": "POL",
    "sourceName": "Chile",
    "targetName": "Poland",
    "weight": 2,
    "startLat": -35.6751,
    "startLng": -71.543,
    "endLat": 51.9194,
    "endLng": 19.1451
  },
  {
    "source": "AUS",
    "target": "BEL",
    "sourceName": "Australia",
    "targetName": "Belgium",
    "weight": 2,
    "startLat": -25.2744,
    "startLng": 133.7751,
    "endLat": 50.5039,
    "endLng": 4.4699
  },
  {
    "source": "AUS",
    "target": "HUN",
    "sourceName": "Australia",
    "targetName": "Hungary",
    "weight": 2,
    "startLat": -25.2744,
    "startLng": 133.7751,
    "endLat": 47.1625,
    "endLng": 19.5033
  },
  {
    "source": "AUS",
    "target": "ITA",
    "sourceName": "Australia",
    "targetName": "Italy",
    "weight": 2,
    "startLat": -25.2744,
    "startLng": 133.7751,
    "endLat": 41.8719,
    "endLng": 12.5674
  },
  {
    "source": "AUS",
    "target": "NLD",
    "sourceName": "Australia",
    "targetName": "Netherlands",
    "weight": 2,
    "startLat": -25.2744,
    "startLng": 133.7751,
    "endLat": 52.1326,
    "endLng": 5.2913
  },
  {
    "source": "AUT",
    "target": "BEL",
    "sourceName": "Austria",
    "targetName": "Belgium",
    "weight": 2,
    "startLat": 47.5162,
    "startLng": 14.5501,
    "endLat": 50.5039,
    "endLng": 4.4699
  },
  {
    "source": "GBR",
    "target": "HUN",
    "sourceName": "United Kingdom",
    "targetName": "Hungary",
    "weight": 2,
    "startLat": 55.3781,
    "startLng": -3.436,
    "endLat": 47.1625,
    "endLng": 19.5033
  },
  {
    "source": "ARG",
    "target": "RUS",
    "sourceName": "Argentina",
    "targetName": "Russia",
    "weight": 2,
    "startLat": -38.4161,
    "startLng": -63.6167,
    "endLat": 61.524,
    "endLng": 105.3188
  },
  {
    "source": "NLD",
    "target": "RUS",
    "sourceName": "Netherlands",
    "targetName": "Russia",
    "weight": 2,
    "startLat": 52.1326,
    "startLng": 5.2913,
    "endLat": 61.524,
    "endLng": 105.3188
  },
  {
    "source": "CAN",
    "target": "DNK",
    "sourceName": "Canada",
    "targetName": "Denmark",
    "weight": 2,
    "startLat": 56.1304,
    "startLng": -106.3468,
    "endLat": 56.2639,
    "endLng": 9.5018
  },
  {
    "source": "ARG",
    "target": "CUB",
    "sourceName": "Argentina",
    "targetName": "Cuba",
    "weight": 2,
    "startLat": -38.4161,
    "startLng": -63.6167,
    "endLat": 21.5218,
    "endLng": -77.7812
  },
  {
    "source": "CHN",
    "target": "ROU",
    "sourceName": "China",
    "targetName": "Romania",
    "weight": 2,
    "startLat": 35.8617,
    "startLng": 104.1954,
    "endLat": 45.9432,
    "endLng": 24.9668
  },
  {
    "source": "ARG",
    "target": "AUT",
    "sourceName": "Argentina",
    "targetName": "Austria",
    "weight": 2,
    "startLat": -38.4161,
    "startLng": -63.6167,
    "endLat": 47.5162,
    "endLng": 14.5501
  },
  {
    "source": "AUT",
    "target": "MEX",
    "sourceName": "Austria",
    "targetName": "Mexico",
    "weight": 2,
    "startLat": 47.5162,
    "startLng": 14.5501,
    "endLat": 23.6345,
    "endLng": -102.5528
  },
  {
    "source": "CHL",
    "target": "JPN",
    "sourceName": "Chile",
    "targetName": "Japan",
    "weight": 2,
    "startLat": -35.6751,
    "startLng": -71.543,
    "endLat": 36.2048,
    "endLng": 138.2529
  },
  {
    "source": "CHL",
    "target": "MEX",
    "sourceName": "Chile",
    "targetName": "Mexico",
    "weight": 2,
    "startLat": -35.6751,
    "startLng": -71.543,
    "endLat": 23.6345,
    "endLng": -102.5528
  },
  {
    "source": "MEX",
    "target": "POL",
    "sourceName": "Mexico",
    "targetName": "Poland",
    "weight": 2,
    "startLat": 23.6345,
    "startLng": -102.5528,
    "endLat": 51.9194,
    "endLng": 19.1451
  },
  {
    "source": "AUT",
    "target": "DNK",
    "sourceName": "Austria",
    "targetName": "Denmark",
    "weight": 2,
    "startLat": 47.5162,
    "startLng": 14.5501,
    "endLat": 56.2639,
    "endLng": 9.5018
  },
  {
    "source": "NLD",
    "target": "SWE",
    "sourceName": "Netherlands",
    "targetName": "Sweden",
    "weight": 2,
    "startLat": 52.1326,
    "startLng": 5.2913,
    "endLat": 60.1282,
    "endLng": 18.6435
  },
  {
    "source": "COL",
    "target": "ESP",
    "sourceName": "Colombia",
    "targetName": "Spain",
    "weight": 2,
    "startLat": 4.5709,
    "startLng": -74.2973,
    "endLat": 40.4637,
    "endLng": -3.7492
  },
  {
    "source": "COL",
    "target": "MEX",
    "sourceName": "Colombia",
    "targetName": "Mexico",
    "weight": 2,
    "startLat": 4.5709,
    "startLng": -74.2973,
    "endLat": 23.6345,
    "endLng": -102.5528
  },
  {
    "source": "ESP",
    "target": "VEN",
    "sourceName": "Spain",
    "targetName": "Venezuela",
    "weight": 2,
    "startLat": 40.4637,
    "startLng": -3.7492,
    "endLat": 6.4238,
    "endLng": -66.5897
  },
  {
    "source": "BRA",
    "target": "MEX",
    "sourceName": "Brazil",
    "targetName": "Mexico",
    "weight": 2,
    "startLat": -14.235,
    "startLng": -51.9253,
    "endLat": 23.6345,
    "endLng": -102.5528
  },
  {
    "source": "JPN",
    "target": "VEN",
    "sourceName": "Japan",
    "targetName": "Venezuela",
    "weight": 2,
    "startLat": 36.2048,
    "startLng": 138.2529,
    "endLat": 6.4238,
    "endLng": -66.5897
  },
  {
    "source": "CHE",
    "target": "IRL",
    "sourceName": "Switzerland",
    "targetName": "Ireland",
    "weight": 2,
    "startLat": 46.8182,
    "startLng": 8.2275,
    "endLat": 53.4129,
    "endLng": -8.2439
  },
  {
    "source": "GBR",
    "target": "RUS",
    "sourceName": "United Kingdom",
    "targetName": "Russia",
    "weight": 2,
    "startLat": 55.3781,
    "startLng": -3.436,
    "endLat": 61.524,
    "endLng": 105.3188
  },
  {
    "source": "CZE",
    "target": "HUN",
    "sourceName": "Czech Republic",
    "targetName": "Hungary",
    "weight": 2,
    "startLat": 49.8175,
    "startLng": 15.473,
    "endLat": 47.1625,
    "endLng": 19.5033
  },
  {
    "source": "CZE",
    "target": "POL",
    "sourceName": "Czech Republic",
    "targetName": "Poland",
    "weight": 2,
    "startLat": 49.8175,
    "startLng": 15.473,
    "endLat": 51.9194,
    "endLng": 19.1451
  },
  {
    "source": "BEL",
    "target": "ZAF",
    "sourceName": "Belgium",
    "targetName": "South Africa",
    "weight": 2,
    "startLat": 50.5039,
    "startLng": 4.4699,
    "endLat": -30.5595,
    "endLng": 22.9375
  },
  {
    "source": "CAN",
    "target": "ISL",
    "sourceName": "Canada",
    "targetName": "Iceland",
    "weight": 2,
    "startLat": 56.1304,
    "startLng": -106.3468,
    "endLat": 64.9631,
    "endLng": -19.0208
  },
  {
    "source": "SRB",
    "target": "USA",
    "sourceName": "Serbia",
    "targetName": "United States",
    "weight": 2,
    "startLat": 44.0165,
    "startLng": 21.0059,
    "endLat": 37.0902,
    "endLng": -95.7129
  },
  {
    "source": "AUT",
    "target": "IRL",
    "sourceName": "Austria",
    "targetName": "Ireland",
    "weight": 2,
    "startLat": 47.5162,
    "startLng": 14.5501,
    "endLat": 53.4129,
    "endLng": -8.2439
  },
  {
    "source": "GBR",
    "target": "IRL",
    "sourceName": "United Kingdom",
    "targetName": "Ireland",
    "weight": 2,
    "startLat": 55.3781,
    "startLng": -3.436,
    "endLat": 53.4129,
    "endLng": -8.2439
  },
  {
    "source": "GBR",
    "target": "KOR",
    "sourceName": "United Kingdom",
    "targetName": "South Korea",
    "weight": 2,
    "startLat": 55.3781,
    "startLng": -3.436,
    "endLat": 35.9078,
    "endLng": 127.7669
  },
  {
    "source": "FRA",
    "target": "THA",
    "sourceName": "France",
    "targetName": "Thailand",
    "weight": 2,
    "startLat": 46.2276,
    "startLng": 2.2137,
    "endLat": 15.87,
    "endLng": 100.9925
  },
  {
    "source": "GBR",
    "target": "THA",
    "sourceName": "United Kingdom",
    "targetName": "Thailand",
    "weight": 2,
    "startLat": 55.3781,
    "startLng": -3.436,
    "endLat": 15.87,
    "endLng": 100.9925
  },
  {
    "source": "DEU",
    "target": "KOR",
    "sourceName": "Germany",
    "targetName": "South Korea",
    "weight": 2,
    "startLat": 51.1657,
    "startLng": 10.4515,
    "endLat": 35.9078,
    "endLng": 127.7669
  },
  {
    "source": "CHN",
    "target": "DEU",
    "sourceName": "China",
    "targetName": "Germany",
    "weight": 2,
    "startLat": 35.8617,
    "startLng": 104.1954,
    "endLat": 51.1657,
    "endLng": 10.4515
  },
  {
    "source": "USA",
    "target": "VNM",
    "sourceName": "United States",
    "targetName": "Vietnam",
    "weight": 2,
    "startLat": 37.0902,
    "startLng": -95.7129,
    "endLat": 14.0583,
    "endLng": 108.2772
  },
  {
    "source": "CZE",
    "target": "DNK",
    "sourceName": "Czech Republic",
    "targetName": "Denmark",
    "weight": 2,
    "startLat": 49.8175,
    "startLng": 15.473,
    "endLat": 56.2639,
    "endLng": 9.5018
  },
  {
    "source": "AUT",
    "target": "NOR",
    "sourceName": "Austria",
    "targetName": "Norway",
    "weight": 2,
    "startLat": 47.5162,
    "startLng": 14.5501,
    "endLat": 60.472,
    "endLng": 8.4689
  },
  {
    "source": "DEU",
    "target": "GEO",
    "sourceName": "Germany",
    "targetName": "Georgia",
    "weight": 2,
    "startLat": 51.1657,
    "startLng": 10.4515,
    "endLat": 42.3154,
    "endLng": 43.3569
  },
  {
    "source": "GBR",
    "target": "MAR",
    "sourceName": "United Kingdom",
    "targetName": "Morocco",
    "weight": 2,
    "startLat": 55.3781,
    "startLng": -3.436,
    "endLat": 31.7917,
    "endLng": -7.0926
  },
  {
    "source": "MAR",
    "target": "USA",
    "sourceName": "Morocco",
    "targetName": "United States",
    "weight": 2,
    "startLat": 31.7917,
    "startLng": -7.0926,
    "endLat": 37.0902,
    "endLng": -95.7129
  },
  {
    "source": "DEU",
    "target": "ISL",
    "sourceName": "Germany",
    "targetName": "Iceland",
    "weight": 2,
    "startLat": 51.1657,
    "startLng": 10.4515,
    "endLat": 64.9631,
    "endLng": -19.0208
  },
  {
    "source": "CHN",
    "target": "ISR",
    "sourceName": "China",
    "targetName": "Israel",
    "weight": 2,
    "startLat": 35.8617,
    "startLng": 104.1954,
    "endLat": 31.0461,
    "endLng": 34.8516
  },
  {
    "source": "CZE",
    "target": "SWE",
    "sourceName": "Czech Republic",
    "targetName": "Sweden",
    "weight": 2,
    "startLat": 49.8175,
    "startLng": 15.473,
    "endLat": 60.1282,
    "endLng": 18.6435
  },
  {
    "source": "FRA",
    "target": "ZAF",
    "sourceName": "France",
    "targetName": "South Africa",
    "weight": 2,
    "startLat": 46.2276,
    "startLng": 2.2137,
    "endLat": -30.5595,
    "endLng": 22.9375
  },
  {
    "source": "ITA",
    "target": "ZAF",
    "sourceName": "Italy",
    "targetName": "South Africa",
    "weight": 2,
    "startLat": 41.8719,
    "startLng": 12.5674,
    "endLat": -30.5595,
    "endLng": 22.9375
  },
  {
    "source": "FRA",
    "target": "GEO",
    "sourceName": "France",
    "targetName": "Georgia",
    "weight": 2,
    "startLat": 46.2276,
    "startLng": 2.2137,
    "endLat": 42.3154,
    "endLng": 43.3569
  },
  {
    "source": "BGD",
    "target": "IND",
    "sourceName": "Bangladesh",
    "targetName": "India",
    "weight": 2,
    "startLat": 23.685,
    "startLng": 90.3563,
    "endLat": 20.5937,
    "endLng": 78.9629
  },
  {
    "source": "PHL",
    "target": "USA",
    "sourceName": "Philippines",
    "targetName": "United States",
    "weight": 2,
    "startLat": 12.8797,
    "startLng": 121.774,
    "endLat": 37.0902,
    "endLng": -95.7129
  },
  {
    "source": "NLD",
    "target": "NOR",
    "sourceName": "Netherlands",
    "targetName": "Norway",
    "weight": 1,
    "startLat": 52.1326,
    "startLng": 5.2913,
    "endLat": 60.472,
    "endLng": 8.4689
  },
  {
    "source": "CHE",
    "target": "URY",
    "sourceName": "Switzerland",
    "targetName": "Uruguay",
    "weight": 1,
    "startLat": 46.8182,
    "startLng": 8.2275,
    "endLat": -32.5228,
    "endLng": -55.7658
  },
  {
    "source": "ESP",
    "target": "GRC",
    "sourceName": "Spain",
    "targetName": "Greece",
    "weight": 1,
    "startLat": 40.4637,
    "startLng": -3.7492,
    "endLat": 39.0742,
    "endLng": 21.8243
  },
  {
    "source": "FRA",
    "target": "URY",
    "sourceName": "France",
    "targetName": "Uruguay",
    "weight": 1,
    "startLat": 46.2276,
    "startLng": 2.2137,
    "endLat": -32.5228,
    "endLng": -55.7658
  },
  {
    "source": "GRC",
    "target": "URY",
    "sourceName": "Greece",
    "targetName": "Uruguay",
    "weight": 1,
    "startLat": 39.0742,
    "startLng": 21.8243,
    "endLat": -32.5228,
    "endLng": -55.7658
  },
  {
    "source": "ITA",
    "target": "URY",
    "sourceName": "Italy",
    "targetName": "Uruguay",
    "weight": 1,
    "startLat": 41.8719,
    "startLng": 12.5674,
    "endLat": -32.5228,
    "endLng": -55.7658
  },
  {
    "source": "AUT",
    "target": "ZAF",
    "sourceName": "Austria",
    "targetName": "South Africa",
    "weight": 1,
    "startLat": 47.5162,
    "startLng": 14.5501,
    "endLat": -30.5595,
    "endLng": 22.9375
  },
  {
    "source": "CHE",
    "target": "NZL",
    "sourceName": "Switzerland",
    "targetName": "New Zealand",
    "weight": 1,
    "startLat": 46.8182,
    "startLng": 8.2275,
    "endLat": -40.9006,
    "endLng": 174.886
  },
  {
    "source": "BEL",
    "target": "DZA",
    "sourceName": "Belgium",
    "targetName": "Algeria",
    "weight": 1,
    "startLat": 50.5039,
    "startLng": 4.4699,
    "endLat": 28.0339,
    "endLng": 1.6596
  },
  {
    "source": "CHE",
    "target": "DZA",
    "sourceName": "Switzerland",
    "targetName": "Algeria",
    "weight": 1,
    "startLat": 46.8182,
    "startLng": 8.2275,
    "endLat": 28.0339,
    "endLng": 1.6596
  },
  {
    "source": "DZA",
    "target": "FRA",
    "sourceName": "Algeria",
    "targetName": "France",
    "weight": 1,
    "startLat": 28.0339,
    "startLng": 1.6596,
    "endLat": 46.2276,
    "endLng": 2.2137
  },
  {
    "source": "DZA",
    "target": "NLD",
    "sourceName": "Algeria",
    "targetName": "Netherlands",
    "weight": 1,
    "startLat": 28.0339,
    "startLng": 1.6596,
    "endLat": 52.1326,
    "endLng": 5.2913
  },
  {
    "source": "DNK",
    "target": "ISL",
    "sourceName": "Denmark",
    "targetName": "Iceland",
    "weight": 1,
    "startLat": 56.2639,
    "startLng": 9.5018,
    "endLat": 64.9631,
    "endLng": -19.0208
  },
  {
    "source": "CHE",
    "target": "RUS",
    "sourceName": "Switzerland",
    "targetName": "Russia",
    "weight": 1,
    "startLat": 46.8182,
    "startLng": 8.2275,
    "endLat": 61.524,
    "endLng": 105.3188
  },
  {
    "source": "BEL",
    "target": "BRA",
    "sourceName": "Belgium",
    "targetName": "Brazil",
    "weight": 1,
    "startLat": 50.5039,
    "startLng": 4.4699,
    "endLat": -14.235,
    "endLng": -51.9253
  },
  {
    "source": "BRA",
    "target": "CHE",
    "sourceName": "Brazil",
    "targetName": "Switzerland",
    "weight": 1,
    "startLat": -14.235,
    "startLng": -51.9253,
    "endLat": 46.8182,
    "endLng": 8.2275
  },
  {
    "source": "BRA",
    "target": "CZE",
    "sourceName": "Brazil",
    "targetName": "Czech Republic",
    "weight": 1,
    "startLat": -14.235,
    "startLng": -51.9253,
    "endLat": 49.8175,
    "endLng": 15.473
  },
  {
    "source": "BRA",
    "target": "ITA",
    "sourceName": "Brazil",
    "targetName": "Italy",
    "weight": 1,
    "startLat": -14.235,
    "startLng": -51.9253,
    "endLat": 41.8719,
    "endLng": 12.5674
  },
  {
    "source": "BRA",
    "target": "ROU",
    "sourceName": "Brazil",
    "targetName": "Romania",
    "weight": 1,
    "startLat": -14.235,
    "startLng": -51.9253,
    "endLat": 45.9432,
    "endLng": 24.9668
  },
  {
    "source": "CHE",
    "target": "CHL",
    "sourceName": "Switzerland",
    "targetName": "Chile",
    "weight": 1,
    "startLat": 46.8182,
    "startLng": 8.2275,
    "endLat": -35.6751,
    "endLng": -71.543
  },
  {
    "source": "CHL",
    "target": "ROU",
    "sourceName": "Chile",
    "targetName": "Romania",
    "weight": 1,
    "startLat": -35.6751,
    "startLng": -71.543,
    "endLat": 45.9432,
    "endLng": 24.9668
  },
  {
    "source": "ESP",
    "target": "ROU",
    "sourceName": "Spain",
    "targetName": "Romania",
    "weight": 1,
    "startLat": 40.4637,
    "startLng": -3.7492,
    "endLat": 45.9432,
    "endLng": 24.9668
  },
  {
    "source": "CAN",
    "target": "POL",
    "sourceName": "Canada",
    "targetName": "Poland",
    "weight": 1,
    "startLat": 56.1304,
    "startLng": -106.3468,
    "endLat": 51.9194,
    "endLng": 19.1451
  },
  {
    "source": "AUS",
    "target": "AUT",
    "sourceName": "Australia",
    "targetName": "Austria",
    "weight": 1,
    "startLat": -25.2744,
    "startLng": 133.7751,
    "endLat": 47.5162,
    "endLng": 14.5501
  },
  {
    "source": "CHE",
    "target": "HUN",
    "sourceName": "Switzerland",
    "targetName": "Hungary",
    "weight": 1,
    "startLat": 46.8182,
    "startLng": 8.2275,
    "endLat": 47.1625,
    "endLng": 19.5033
  },
  {
    "source": "ARG",
    "target": "HUN",
    "sourceName": "Argentina",
    "targetName": "Hungary",
    "weight": 1,
    "startLat": -38.4161,
    "startLng": -63.6167,
    "endLat": 47.1625,
    "endLng": 19.5033
  },
  {
    "source": "ARG",
    "target": "ISR",
    "sourceName": "Argentina",
    "targetName": "Israel",
    "weight": 1,
    "startLat": -38.4161,
    "startLng": -63.6167,
    "endLat": 31.0461,
    "endLng": 34.8516
  },
  {
    "source": "BEL",
    "target": "RUS",
    "sourceName": "Belgium",
    "targetName": "Russia",
    "weight": 1,
    "startLat": 50.5039,
    "startLng": 4.4699,
    "endLat": 61.524,
    "endLng": 105.3188
  },
  {
    "source": "FRA",
    "target": "ISR",
    "sourceName": "France",
    "targetName": "Israel",
    "weight": 1,
    "startLat": 46.2276,
    "startLng": 2.2137,
    "endLat": 31.0461,
    "endLng": 34.8516
  },
  {
    "source": "HUN",
    "target": "ISR",
    "sourceName": "Hungary",
    "targetName": "Israel",
    "weight": 1,
    "startLat": 47.1625,
    "startLng": 19.5033,
    "endLat": 31.0461,
    "endLng": 34.8516
  },
  {
    "source": "HUN",
    "target": "RUS",
    "sourceName": "Hungary",
    "targetName": "Russia",
    "weight": 1,
    "startLat": 47.1625,
    "startLng": 19.5033,
    "endLat": 61.524,
    "endLng": 105.3188
  },
  {
    "source": "ISR",
    "target": "RUS",
    "sourceName": "Israel",
    "targetName": "Russia",
    "weight": 1,
    "startLat": 31.0461,
    "startLng": 34.8516,
    "endLat": 61.524,
    "endLng": 105.3188
  },
  {
    "source": "ARG",
    "target": "CHN",
    "sourceName": "Argentina",
    "targetName": "China",
    "weight": 1,
    "startLat": -38.4161,
    "startLng": -63.6167,
    "endLat": 35.8617,
    "endLng": 104.1954
  },
  {
    "source": "ARG",
    "target": "IND",
    "sourceName": "Argentina",
    "targetName": "India",
    "weight": 1,
    "startLat": -38.4161,
    "startLng": -63.6167,
    "endLat": 20.5937,
    "endLng": 78.9629
  },
  {
    "source": "ARG",
    "target": "ROU",
    "sourceName": "Argentina",
    "targetName": "Romania",
    "weight": 1,
    "startLat": -38.4161,
    "startLng": -63.6167,
    "endLat": 45.9432,
    "endLng": 24.9668
  },
  {
    "source": "ARG",
    "target": "SWE",
    "sourceName": "Argentina",
    "targetName": "Sweden",
    "weight": 1,
    "startLat": -38.4161,
    "startLng": -63.6167,
    "endLat": 60.1282,
    "endLng": 18.6435
  },
  {
    "source": "BEL",
    "target": "CHN",
    "sourceName": "Belgium",
    "targetName": "China",
    "weight": 1,
    "startLat": 50.5039,
    "startLng": 4.4699,
    "endLat": 35.8617,
    "endLng": 104.1954
  },
  {
    "source": "BEL",
    "target": "IND",
    "sourceName": "Belgium",
    "targetName": "India",
    "weight": 1,
    "startLat": 50.5039,
    "startLng": 4.4699,
    "endLat": 20.5937,
    "endLng": 78.9629
  },
  {
    "source": "CHN",
    "target": "CUB",
    "sourceName": "China",
    "targetName": "Cuba",
    "weight": 1,
    "startLat": 35.8617,
    "startLng": 104.1954,
    "endLat": 21.5218,
    "endLng": -77.7812
  },
  {
    "source": "CHN",
    "target": "FRA",
    "sourceName": "China",
    "targetName": "France",
    "weight": 1,
    "startLat": 35.8617,
    "startLng": 104.1954,
    "endLat": 46.2276,
    "endLng": 2.2137
  },
  {
    "source": "CHN",
    "target": "ITA",
    "sourceName": "China",
    "targetName": "Italy",
    "weight": 1,
    "startLat": 35.8617,
    "startLng": 104.1954,
    "endLat": 41.8719,
    "endLng": 12.5674
  },
  {
    "source": "CHN",
    "target": "SWE",
    "sourceName": "China",
    "targetName": "Sweden",
    "weight": 1,
    "startLat": 35.8617,
    "startLng": 104.1954,
    "endLat": 60.1282,
    "endLng": 18.6435
  },
  {
    "source": "CUB",
    "target": "IND",
    "sourceName": "Cuba",
    "targetName": "India",
    "weight": 1,
    "startLat": 21.5218,
    "startLng": -77.7812,
    "endLat": 20.5937,
    "endLng": 78.9629
  },
  {
    "source": "CUB",
    "target": "JPN",
    "sourceName": "Cuba",
    "targetName": "Japan",
    "weight": 1,
    "startLat": 21.5218,
    "startLng": -77.7812,
    "endLat": 36.2048,
    "endLng": 138.2529
  },
  {
    "source": "CUB",
    "target": "SWE",
    "sourceName": "Cuba",
    "targetName": "Sweden",
    "weight": 1,
    "startLat": 21.5218,
    "startLng": -77.7812,
    "endLat": 60.1282,
    "endLng": 18.6435
  },
  {
    "source": "FRA",
    "target": "IND",
    "sourceName": "France",
    "targetName": "India",
    "weight": 1,
    "startLat": 46.2276,
    "startLng": 2.2137,
    "endLat": 20.5937,
    "endLng": 78.9629
  },
  {
    "source": "IND",
    "target": "ITA",
    "sourceName": "India",
    "targetName": "Italy",
    "weight": 1,
    "startLat": 20.5937,
    "startLng": 78.9629,
    "endLat": 41.8719,
    "endLng": 12.5674
  },
  {
    "source": "IND",
    "target": "JPN",
    "sourceName": "India",
    "targetName": "Japan",
    "weight": 1,
    "startLat": 20.5937,
    "startLng": 78.9629,
    "endLat": 36.2048,
    "endLng": 138.2529
  },
  {
    "source": "IND",
    "target": "ROU",
    "sourceName": "India",
    "targetName": "Romania",
    "weight": 1,
    "startLat": 20.5937,
    "startLng": 78.9629,
    "endLat": 45.9432,
    "endLng": 24.9668
  },
  {
    "source": "IND",
    "target": "SWE",
    "sourceName": "India",
    "targetName": "Sweden",
    "weight": 1,
    "startLat": 20.5937,
    "startLng": 78.9629,
    "endLat": 60.1282,
    "endLng": 18.6435
  },
  {
    "source": "JPN",
    "target": "ROU",
    "sourceName": "Japan",
    "targetName": "Romania",
    "weight": 1,
    "startLat": 36.2048,
    "startLng": 138.2529,
    "endLat": 45.9432,
    "endLng": 24.9668
  },
  {
    "source": "ROU",
    "target": "SWE",
    "sourceName": "Romania",
    "targetName": "Sweden",
    "weight": 1,
    "startLat": 45.9432,
    "startLng": 24.9668,
    "endLat": 60.1282,
    "endLng": 18.6435
  },
  {
    "source": "ARG",
    "target": "NLD",
    "sourceName": "Argentina",
    "targetName": "Netherlands",
    "weight": 1,
    "startLat": -38.4161,
    "startLng": -63.6167,
    "endLat": 52.1326,
    "endLng": 5.2913
  },
  {
    "source": "ARG",
    "target": "POL",
    "sourceName": "Argentina",
    "targetName": "Poland",
    "weight": 1,
    "startLat": -38.4161,
    "startLng": -63.6167,
    "endLat": 51.9194,
    "endLng": 19.1451
  },
  {
    "source": "AUT",
    "target": "CHL",
    "sourceName": "Austria",
    "targetName": "Chile",
    "weight": 1,
    "startLat": 47.5162,
    "startLng": 14.5501,
    "endLat": -35.6751,
    "endLng": -71.543
  },
  {
    "source": "AUT",
    "target": "RUS",
    "sourceName": "Austria",
    "targetName": "Russia",
    "weight": 1,
    "startLat": 47.5162,
    "startLng": 14.5501,
    "endLat": 61.524,
    "endLng": 105.3188
  },
  {
    "source": "CHL",
    "target": "RUS",
    "sourceName": "Chile",
    "targetName": "Russia",
    "weight": 1,
    "startLat": -35.6751,
    "startLng": -71.543,
    "endLat": 61.524,
    "endLng": 105.3188
  },
  {
    "source": "JPN",
    "target": "POL",
    "sourceName": "Japan",
    "targetName": "Poland",
    "weight": 1,
    "startLat": 36.2048,
    "startLng": 138.2529,
    "endLat": 51.9194,
    "endLng": 19.1451
  },
  {
    "source": "JPN",
    "target": "RUS",
    "sourceName": "Japan",
    "targetName": "Russia",
    "weight": 1,
    "startLat": 36.2048,
    "startLng": 138.2529,
    "endLat": 61.524,
    "endLng": 105.3188
  },
  {
    "source": "MEX",
    "target": "RUS",
    "sourceName": "Mexico",
    "targetName": "Russia",
    "weight": 1,
    "startLat": 23.6345,
    "startLng": -102.5528,
    "endLat": 61.524,
    "endLng": 105.3188
  },
  {
    "source": "NLD",
    "target": "POL",
    "sourceName": "Netherlands",
    "targetName": "Poland",
    "weight": 1,
    "startLat": 52.1326,
    "startLng": 5.2913,
    "endLat": 51.9194,
    "endLng": 19.1451
  },
  {
    "source": "POL",
    "target": "RUS",
    "sourceName": "Poland",
    "targetName": "Russia",
    "weight": 1,
    "startLat": 51.9194,
    "startLng": 19.1451,
    "endLat": 61.524,
    "endLng": 105.3188
  },
  {
    "source": "AUT",
    "target": "CAN",
    "sourceName": "Austria",
    "targetName": "Canada",
    "weight": 1,
    "startLat": 47.5162,
    "startLng": 14.5501,
    "endLat": 56.1304,
    "endLng": -106.3468
  },
  {
    "source": "DNK",
    "target": "SWE",
    "sourceName": "Denmark",
    "targetName": "Sweden",
    "weight": 1,
    "startLat": 56.2639,
    "startLng": 9.5018,
    "endLat": 60.1282,
    "endLng": 18.6435
  },
  {
    "source": "JAM",
    "target": "USA",
    "sourceName": "Jamaica",
    "targetName": "United States",
    "weight": 1,
    "startLat": 18.1096,
    "startLng": -77.2975,
    "endLat": 37.0902,
    "endLng": -95.7129
  },
  {
    "source": "ARG",
    "target": "PRY",
    "sourceName": "Argentina",
    "targetName": "Paraguay",
    "weight": 1,
    "startLat": -38.4161,
    "startLng": -63.6167,
    "endLat": -23.4425,
    "endLng": -58.4438
  },
  {
    "source": "ARG",
    "target": "URY",
    "sourceName": "Argentina",
    "targetName": "Uruguay",
    "weight": 1,
    "startLat": -38.4161,
    "startLng": -63.6167,
    "endLat": -32.5228,
    "endLng": -55.7658
  },
  {
    "source": "BRA",
    "target": "JPN",
    "sourceName": "Brazil",
    "targetName": "Japan",
    "weight": 1,
    "startLat": -14.235,
    "startLng": -51.9253,
    "endLat": 36.2048,
    "endLng": 138.2529
  },
  {
    "source": "BRA",
    "target": "PRY",
    "sourceName": "Brazil",
    "targetName": "Paraguay",
    "weight": 1,
    "startLat": -14.235,
    "startLng": -51.9253,
    "endLat": -23.4425,
    "endLng": -58.4438
  },
  {
    "source": "COL",
    "target": "GBR",
    "sourceName": "Colombia",
    "targetName": "United Kingdom",
    "weight": 1,
    "startLat": 4.5709,
    "startLng": -74.2973,
    "endLat": 55.3781,
    "endLng": -3.436
  },
  {
    "source": "COL",
    "target": "JPN",
    "sourceName": "Colombia",
    "targetName": "Japan",
    "weight": 1,
    "startLat": 4.5709,
    "startLng": -74.2973,
    "endLat": 36.2048,
    "endLng": 138.2529
  },
  {
    "source": "COL",
    "target": "PRY",
    "sourceName": "Colombia",
    "targetName": "Paraguay",
    "weight": 1,
    "startLat": 4.5709,
    "startLng": -74.2973,
    "endLat": -23.4425,
    "endLng": -58.4438
  },
  {
    "source": "COL",
    "target": "URY",
    "sourceName": "Colombia",
    "targetName": "Uruguay",
    "weight": 1,
    "startLat": 4.5709,
    "startLng": -74.2973,
    "endLat": -32.5228,
    "endLng": -55.7658
  },
  {
    "source": "COL",
    "target": "USA",
    "sourceName": "Colombia",
    "targetName": "United States",
    "weight": 1,
    "startLat": 4.5709,
    "startLng": -74.2973,
    "endLat": 37.0902,
    "endLng": -95.7129
  },
  {
    "source": "ESP",
    "target": "PRY",
    "sourceName": "Spain",
    "targetName": "Paraguay",
    "weight": 1,
    "startLat": 40.4637,
    "startLng": -3.7492,
    "endLat": -23.4425,
    "endLng": -58.4438
  },
  {
    "source": "GBR",
    "target": "PRY",
    "sourceName": "United Kingdom",
    "targetName": "Paraguay",
    "weight": 1,
    "startLat": 55.3781,
    "startLng": -3.436,
    "endLat": -23.4425,
    "endLng": -58.4438
  },
  {
    "source": "JPN",
    "target": "PRY",
    "sourceName": "Japan",
    "targetName": "Paraguay",
    "weight": 1,
    "startLat": 36.2048,
    "startLng": 138.2529,
    "endLat": -23.4425,
    "endLng": -58.4438
  },
  {
    "source": "JPN",
    "target": "URY",
    "sourceName": "Japan",
    "targetName": "Uruguay",
    "weight": 1,
    "startLat": 36.2048,
    "startLng": 138.2529,
    "endLat": -32.5228,
    "endLng": -55.7658
  },
  {
    "source": "MEX",
    "target": "PRY",
    "sourceName": "Mexico",
    "targetName": "Paraguay",
    "weight": 1,
    "startLat": 23.6345,
    "startLng": -102.5528,
    "endLat": -23.4425,
    "endLng": -58.4438
  },
  {
    "source": "PRY",
    "target": "URY",
    "sourceName": "Paraguay",
    "targetName": "Uruguay",
    "weight": 1,
    "startLat": -23.4425,
    "startLng": -58.4438,
    "endLat": -32.5228,
    "endLng": -55.7658
  },
  {
    "source": "PRY",
    "target": "USA",
    "sourceName": "Paraguay",
    "targetName": "United States",
    "weight": 1,
    "startLat": -23.4425,
    "startLng": -58.4438,
    "endLat": 37.0902,
    "endLng": -95.7129
  },
  {
    "source": "PRY",
    "target": "VEN",
    "sourceName": "Paraguay",
    "targetName": "Venezuela",
    "weight": 1,
    "startLat": -23.4425,
    "startLng": -58.4438,
    "endLat": 6.4238,
    "endLng": -66.5897
  },
  {
    "source": "URY",
    "target": "VEN",
    "sourceName": "Uruguay",
    "targetName": "Venezuela",
    "weight": 1,
    "startLat": -32.5228,
    "startLng": -55.7658,
    "endLat": 6.4238,
    "endLng": -66.5897
  },
  {
    "source": "CHL",
    "target": "DNK",
    "sourceName": "Chile",
    "targetName": "Denmark",
    "weight": 1,
    "startLat": -35.6751,
    "startLng": -71.543,
    "endLat": 56.2639,
    "endLng": 9.5018
  },
  {
    "source": "CUB",
    "target": "DNK",
    "sourceName": "Cuba",
    "targetName": "Denmark",
    "weight": 1,
    "startLat": 21.5218,
    "startLng": -77.7812,
    "endLat": 56.2639,
    "endLng": 9.5018
  },
  {
    "source": "CUB",
    "target": "NLD",
    "sourceName": "Cuba",
    "targetName": "Netherlands",
    "weight": 1,
    "startLat": 21.5218,
    "startLng": -77.7812,
    "endLat": 52.1326,
    "endLng": 5.2913
  },
  {
    "source": "RUS",
    "target": "UZB",
    "sourceName": "Russia",
    "targetName": "Uzbekistan",
    "weight": 1,
    "startLat": 61.524,
    "startLng": 105.3188,
    "endLat": 41.3775,
    "endLng": 64.5853
  },
  {
    "source": "CZE",
    "target": "SVN",
    "sourceName": "Czech Republic",
    "targetName": "Slovenia",
    "weight": 1,
    "startLat": 49.8175,
    "startLng": 15.473,
    "endLat": 46.1512,
    "endLng": 14.9955
  },
  {
    "source": "HUN",
    "target": "POL",
    "sourceName": "Hungary",
    "targetName": "Poland",
    "weight": 1,
    "startLat": 47.1625,
    "startLng": 19.5033,
    "endLat": 51.9194,
    "endLng": 19.1451
  },
  {
    "source": "HUN",
    "target": "ROU",
    "sourceName": "Hungary",
    "targetName": "Romania",
    "weight": 1,
    "startLat": 47.1625,
    "startLng": 19.5033,
    "endLat": 45.9432,
    "endLng": 24.9668
  },
  {
    "source": "HUN",
    "target": "SVN",
    "sourceName": "Hungary",
    "targetName": "Slovenia",
    "weight": 1,
    "startLat": 47.1625,
    "startLng": 19.5033,
    "endLat": 46.1512,
    "endLng": 14.9955
  },
  {
    "source": "POL",
    "target": "ROU",
    "sourceName": "Poland",
    "targetName": "Romania",
    "weight": 1,
    "startLat": 51.9194,
    "startLng": 19.1451,
    "endLat": 45.9432,
    "endLng": 24.9668
  },
  {
    "source": "POL",
    "target": "SVN",
    "sourceName": "Poland",
    "targetName": "Slovenia",
    "weight": 1,
    "startLat": 51.9194,
    "startLng": 19.1451,
    "endLat": 46.1512,
    "endLng": 14.9955
  },
  {
    "source": "ROU",
    "target": "SVN",
    "sourceName": "Romania",
    "targetName": "Slovenia",
    "weight": 1,
    "startLat": 45.9432,
    "startLng": 24.9668,
    "endLat": 46.1512,
    "endLng": 14.9955
  },
  {
    "source": "FIN",
    "target": "SWE",
    "sourceName": "Finland",
    "targetName": "Sweden",
    "weight": 1,
    "startLat": 61.9241,
    "startLng": 25.7482,
    "endLat": 60.1282,
    "endLng": 18.6435
  },
  {
    "source": "CHE",
    "target": "ISL",
    "sourceName": "Switzerland",
    "targetName": "Iceland",
    "weight": 1,
    "startLat": 46.8182,
    "startLng": 8.2275,
    "endLat": 64.9631,
    "endLng": -19.0208
  },
  {
    "source": "DEU",
    "target": "FIN",
    "sourceName": "Germany",
    "targetName": "Finland",
    "weight": 1,
    "startLat": 51.1657,
    "startLng": 10.4515,
    "endLat": 61.9241,
    "endLng": 25.7482
  },
  {
    "source": "FIN",
    "target": "GBR",
    "sourceName": "Finland",
    "targetName": "United Kingdom",
    "weight": 1,
    "startLat": 61.9241,
    "startLng": 25.7482,
    "endLat": 55.3781,
    "endLng": -3.436
  },
  {
    "source": "FIN",
    "target": "USA",
    "sourceName": "Finland",
    "targetName": "United States",
    "weight": 1,
    "startLat": 61.9241,
    "startLng": 25.7482,
    "endLat": 37.0902,
    "endLng": -95.7129
  },
  {
    "source": "AUT",
    "target": "CUB",
    "sourceName": "Austria",
    "targetName": "Cuba",
    "weight": 1,
    "startLat": 47.5162,
    "startLng": 14.5501,
    "endLat": 21.5218,
    "endLng": -77.7812
  },
  {
    "source": "IRN",
    "target": "NLD",
    "sourceName": "Iran",
    "targetName": "Netherlands",
    "weight": 1,
    "startLat": 32.4279,
    "startLng": 53.688,
    "endLat": 52.1326,
    "endLng": 5.2913
  },
  {
    "source": "IRN",
    "target": "USA",
    "sourceName": "Iran",
    "targetName": "United States",
    "weight": 1,
    "startLat": 32.4279,
    "startLng": 53.688,
    "endLat": 37.0902,
    "endLng": -95.7129
  },
  {
    "source": "CYP",
    "target": "GBR",
    "sourceName": "Cyprus",
    "targetName": "United Kingdom",
    "weight": 1,
    "startLat": 35.1264,
    "startLng": 33.4299,
    "endLat": 55.3781,
    "endLng": -3.436
  },
  {
    "source": "GBR",
    "target": "NZL",
    "sourceName": "United Kingdom",
    "targetName": "New Zealand",
    "weight": 1,
    "startLat": 55.3781,
    "startLng": -3.436,
    "endLat": -40.9006,
    "endLng": 174.886
  },
  {
    "source": "JPN",
    "target": "KOR",
    "sourceName": "Japan",
    "targetName": "South Korea",
    "weight": 1,
    "startLat": 36.2048,
    "startLng": 138.2529,
    "endLat": 35.9078,
    "endLng": 127.7669
  },
  {
    "source": "ALB",
    "target": "DEU",
    "sourceName": "Albania",
    "targetName": "Germany",
    "weight": 1,
    "startLat": 41.1533,
    "startLng": 20.1683,
    "endLat": 51.1657,
    "endLng": 10.4515
  },
  {
    "source": "ALB",
    "target": "USA",
    "sourceName": "Albania",
    "targetName": "United States",
    "weight": 1,
    "startLat": 41.1533,
    "startLng": 20.1683,
    "endLat": 37.0902,
    "endLng": -95.7129
  },
  {
    "source": "IRL",
    "target": "ITA",
    "sourceName": "Ireland",
    "targetName": "Italy",
    "weight": 1,
    "startLat": 53.4129,
    "startLng": -8.2439,
    "endLat": 41.8719,
    "endLng": 12.5674
  },
  {
    "source": "IRL",
    "target": "MEX",
    "sourceName": "Ireland",
    "targetName": "Mexico",
    "weight": 1,
    "startLat": 53.4129,
    "startLng": -8.2439,
    "endLat": 23.6345,
    "endLng": -102.5528
  },
  {
    "source": "DNK",
    "target": "NOR",
    "sourceName": "Denmark",
    "targetName": "Norway",
    "weight": 1,
    "startLat": 56.2639,
    "startLng": 9.5018,
    "endLat": 60.472,
    "endLng": 8.4689
  },
  {
    "source": "ITA",
    "target": "NOR",
    "sourceName": "Italy",
    "targetName": "Norway",
    "weight": 1,
    "startLat": 41.8719,
    "startLng": 12.5674,
    "endLat": 60.472,
    "endLng": 8.4689
  },
  {
    "source": "DEU",
    "target": "UKR",
    "sourceName": "Germany",
    "targetName": "Ukraine",
    "weight": 1,
    "startLat": 51.1657,
    "startLng": 10.4515,
    "endLat": 48.3794,
    "endLng": 31.1656
  },
  {
    "source": "CHN",
    "target": "KOR",
    "sourceName": "China",
    "targetName": "South Korea",
    "weight": 1,
    "startLat": 35.8617,
    "startLng": 104.1954,
    "endLat": 35.9078,
    "endLng": 127.7669
  },
  {
    "source": "AUT",
    "target": "THA",
    "sourceName": "Austria",
    "targetName": "Thailand",
    "weight": 1,
    "startLat": 47.5162,
    "startLng": 14.5501,
    "endLat": 15.87,
    "endLng": 100.9925
  },
  {
    "source": "BEL",
    "target": "KOR",
    "sourceName": "Belgium",
    "targetName": "South Korea",
    "weight": 1,
    "startLat": 50.5039,
    "startLng": 4.4699,
    "endLat": 35.9078,
    "endLng": 127.7669
  },
  {
    "source": "ITA",
    "target": "KOR",
    "sourceName": "Italy",
    "targetName": "South Korea",
    "weight": 1,
    "startLat": 41.8719,
    "startLng": 12.5674,
    "endLat": 35.9078,
    "endLng": 127.7669
  },
  {
    "source": "BRA",
    "target": "KOR",
    "sourceName": "Brazil",
    "targetName": "South Korea",
    "weight": 1,
    "startLat": -14.235,
    "startLng": -51.9253,
    "endLat": 35.9078,
    "endLng": 127.7669
  },
  {
    "source": "DEU",
    "target": "IRL",
    "sourceName": "Germany",
    "targetName": "Ireland",
    "weight": 1,
    "startLat": 51.1657,
    "startLng": 10.4515,
    "endLat": 53.4129,
    "endLng": -8.2439
  },
  {
    "source": "DEU",
    "target": "SRB",
    "sourceName": "Germany",
    "targetName": "Serbia",
    "weight": 1,
    "startLat": 51.1657,
    "startLng": 10.4515,
    "endLat": 44.0165,
    "endLng": 21.0059
  },
  {
    "source": "CHE",
    "target": "SWE",
    "sourceName": "Switzerland",
    "targetName": "Sweden",
    "weight": 1,
    "startLat": 46.8182,
    "startLng": 8.2275,
    "endLat": 60.1282,
    "endLng": 18.6435
  },
  {
    "source": "AUT",
    "target": "BRA",
    "sourceName": "Austria",
    "targetName": "Brazil",
    "weight": 1,
    "startLat": 47.5162,
    "startLng": 14.5501,
    "endLat": -14.235,
    "endLng": -51.9253
  },
  {
    "source": "NOR",
    "target": "USA",
    "sourceName": "Norway",
    "targetName": "United States",
    "weight": 1,
    "startLat": 60.472,
    "startLng": 8.4689,
    "endLat": 37.0902,
    "endLng": -95.7129
  },
  {
    "source": "FRA",
    "target": "HRV",
    "sourceName": "France",
    "targetName": "Croatia",
    "weight": 1,
    "startLat": 46.2276,
    "startLng": 2.2137,
    "endLat": 45.1,
    "endLng": 15.2
  },
  {
    "source": "PRI",
    "target": "SRB",
    "sourceName": "Puerto Rico",
    "targetName": "Serbia",
    "weight": 1,
    "startLat": 18.2208,
    "startLng": -66.5901,
    "endLat": 44.0165,
    "endLng": 21.0059
  },
  {
    "source": "AUT",
    "target": "GEO",
    "sourceName": "Austria",
    "targetName": "Georgia",
    "weight": 1,
    "startLat": 47.5162,
    "startLng": 14.5501,
    "endLat": 42.3154,
    "endLng": 43.3569
  },
  {
    "source": "CHN",
    "target": "GEO",
    "sourceName": "China",
    "targetName": "Georgia",
    "weight": 1,
    "startLat": 35.8617,
    "startLng": 104.1954,
    "endLat": 42.3154,
    "endLng": 43.3569
  },
  {
    "source": "GEO",
    "target": "USA",
    "sourceName": "Georgia",
    "targetName": "United States",
    "weight": 1,
    "startLat": 42.3154,
    "startLng": 43.3569,
    "endLat": 37.0902,
    "endLng": -95.7129
  },
  {
    "source": "AUT",
    "target": "KOR",
    "sourceName": "Austria",
    "targetName": "South Korea",
    "weight": 1,
    "startLat": 47.5162,
    "startLng": 14.5501,
    "endLat": 35.9078,
    "endLng": 127.7669
  },
  {
    "source": "KOR",
    "target": "SWE",
    "sourceName": "South Korea",
    "targetName": "Sweden",
    "weight": 1,
    "startLat": 35.9078,
    "startLng": 127.7669,
    "endLat": 60.1282,
    "endLng": 18.6435
  },
  {
    "source": "AUT",
    "target": "GHA",
    "sourceName": "Austria",
    "targetName": "Ghana",
    "weight": 1,
    "startLat": 47.5162,
    "startLng": 14.5501,
    "endLat": 7.9465,
    "endLng": -1.0232
  },
  {
    "source": "AUT",
    "target": "UKR",
    "sourceName": "Austria",
    "targetName": "Ukraine",
    "weight": 1,
    "startLat": 47.5162,
    "startLng": 14.5501,
    "endLat": 48.3794,
    "endLng": 31.1656
  },
  {
    "source": "GHA",
    "target": "SWE",
    "sourceName": "Ghana",
    "targetName": "Sweden",
    "weight": 1,
    "startLat": 7.9465,
    "startLng": -1.0232,
    "endLat": 60.1282,
    "endLng": 18.6435
  },
  {
    "source": "GHA",
    "target": "UKR",
    "sourceName": "Ghana",
    "targetName": "Ukraine",
    "weight": 1,
    "startLat": 7.9465,
    "startLng": -1.0232,
    "endLat": 48.3794,
    "endLng": 31.1656
  },
  {
    "source": "GHA",
    "target": "USA",
    "sourceName": "Ghana",
    "targetName": "United States",
    "weight": 1,
    "startLat": 7.9465,
    "startLng": -1.0232,
    "endLat": 37.0902,
    "endLng": -95.7129
  },